[{"name":"Aarons Pass","lat":-32.88289015345838,"lng":149.77830840668372,"count":0,"salCode":"10001","state":"New South Wales"},{"name":"Abbotsbury","lat":-33.868183692195515,"lng":150.86501413152908,"count":0,"salCode":"10002","state":"New South Wales"},{"name":"Abbotsford (NSW)","lat":-33.84886886440497,"lng":151.1292075886545,"count":0,"salCode":"10003","state":"New South Wales"},{"name":"Abercrombie","lat":-33.387946551024555,"lng":149.55637080943652,"count":0,"salCode":"10004","state":"New South Wales"},{"name":"Abercrombie River","lat":-33.91363081304517,"lng":149.31518409404157,"count":0,"salCode":"10005","state":"New South Wales"},{"name":"Aberdare","lat":-32.8433875075072,"lng":151.3792370425943,"count":0,"salCode":"10006","state":"New South Wales"},{"name":"Aberdeen (NSW)","lat":-32.17142365195017,"lng":150.87138996499831,"count":0,"salCode":"10007","state":"New South Wales"},{"name":"Aberfoyle","lat":-30.194211557315356,"lng":152.0206493713087,"count":0,"salCode":"10008","state":"New South Wales"},{"name":"Aberglasslyn","lat":-32.6914041158522,"lng":151.5385952404261,"count":0,"salCode":"10009","state":"New South Wales"},{"name":"Abermain","lat":-32.81296928716322,"lng":151.42659696805634,"count":0,"salCode":"10010","state":"New South Wales"},{"name":"Abernethy","lat":-32.88682199107232,"lng":151.39135503529604,"count":0,"salCode":"10011","state":"New South Wales"},{"name":"Abington (NSW)","lat":-30.310738009825535,"lng":151.23347050613108,"count":0,"salCode":"10012","state":"New South Wales"},{"name":"Acacia Creek","lat":-28.381719724597662,"lng":152.3190239640881,"count":0,"salCode":"10013","state":"New South Wales"},{"name":"Acacia Gardens","lat":-33.73283410336615,"lng":150.9129243701268,"count":0,"salCode":"10014","state":"New South Wales"},{"name":"Adaminaby","lat":-36.03300412641747,"lng":148.80956008985362,"count":0,"salCode":"10015","state":"New South Wales"},{"name":"Adamstown","lat":-32.93924682003458,"lng":151.7226428793854,"count":0,"salCode":"10016","state":"New South Wales"},{"name":"Adamstown Heights","lat":-32.94840130621157,"lng":151.7114544695063,"count":0,"salCode":"10017","state":"New South Wales"},{"name":"Adelong","lat":-35.30890915724386,"lng":148.06552972362928,"count":0,"salCode":"10018","state":"New South Wales"},{"name":"Adjungbilly","lat":-35.02606306311098,"lng":148.44403206790574,"count":0,"salCode":"10019","state":"New South Wales"},{"name":"Afterlee","lat":-28.560307665997055,"lng":152.81516696471988,"count":0,"salCode":"10020","state":"New South Wales"},{"name":"Agnes Banks","lat":-33.60482533925088,"lng":150.7082131877086,"count":0,"salCode":"10021","state":"New South Wales"},{"name":"Airds","lat":-34.088151897704364,"lng":150.83437262064598,"count":0,"salCode":"10022","state":"New South Wales"},{"name":"Akolele","lat":-36.353500674242916,"lng":150.06954985989884,"count":0,"salCode":"10023","state":"New South Wales"},{"name":"Albert","lat":-32.309532604026856,"lng":147.6387185127253,"count":0,"salCode":"10024","state":"New South Wales"},{"name":"Albion Park","lat":-34.57848869252859,"lng":150.77920748888866,"count":0,"salCode":"10025","state":"New South Wales"},{"name":"Albion Park Rail","lat":-34.55693552087707,"lng":150.79372624958316,"count":0,"salCode":"10026","state":"New South Wales"},{"name":"Albury","lat":-36.073881719234556,"lng":146.91473042297775,"count":0,"salCode":"10027","state":"New South Wales"},{"name":"Aldavilla","lat":-31.069346443374474,"lng":152.77492248217467,"count":0,"salCode":"10028","state":"New South Wales"},{"name":"Alectown","lat":-32.90129264759891,"lng":148.23198066757513,"count":0,"salCode":"10029","state":"New South Wales"},{"name":"Alexandria","lat":-33.907378020785096,"lng":151.19315946117771,"count":0,"salCode":"10030","state":"New South Wales"},{"name":"Alfords Point","lat":-33.98627549768575,"lng":151.02436118311482,"count":0,"salCode":"10031","state":"New South Wales"},{"name":"Alfredtown","lat":-35.14075775167414,"lng":147.50483264500028,"count":0,"salCode":"10032","state":"New South Wales"},{"name":"Alice","lat":-29.050076827992875,"lng":152.58306618269873,"count":0,"salCode":"10033","state":"New South Wales"},{"name":"Alison (Central Coast - NSW)","lat":-33.268755689307014,"lng":151.3959036176226,"count":0,"salCode":"10034","state":"New South Wales"},{"name":"Alison (Dungog - NSW)","lat":-32.447106307412234,"lng":151.76891299000317,"count":0,"salCode":"10035","state":"New South Wales"},{"name":"Allambie Heights","lat":-33.77081719510056,"lng":151.25519820372875,"count":0,"salCode":"10036","state":"New South Wales"},{"name":"Allandale (NSW)","lat":-32.72430186056092,"lng":151.41133387356916,"count":0,"salCode":"10037","state":"New South Wales"},{"name":"Allawah","lat":-33.97280492320666,"lng":151.1138703074637,"count":0,"salCode":"10038","state":"New South Wales"},{"name":"Alleena","lat":-34.09864253242394,"lng":147.13334223234403,"count":0,"salCode":"10039","state":"New South Wales"},{"name":"Allgomera","lat":-30.842677634244556,"lng":152.79320752072536,"count":0,"salCode":"10040","state":"New South Wales"},{"name":"Allworth","lat":-32.53795314593649,"lng":151.9615896260953,"count":0,"salCode":"10041","state":"New South Wales"},{"name":"Allynbrook","lat":-32.34619429922815,"lng":151.54678058720822,"count":0,"salCode":"10042","state":"New South Wales"},{"name":"Alma Park","lat":-35.61262034098908,"lng":146.79685732295664,"count":0,"salCode":"10043","state":"New South Wales"},{"name":"Alpine","lat":-34.407596820609676,"lng":150.54118553530483,"count":0,"salCode":"10044","state":"New South Wales"},{"name":"Alstonvale","lat":-28.7919432808985,"lng":153.43983415601096,"count":0,"salCode":"10045","state":"New South Wales"},{"name":"Alstonville","lat":-28.853126550284507,"lng":153.44951862329162,"count":0,"salCode":"10046","state":"New South Wales"},{"name":"Alumy Creek","lat":-29.640298100759964,"lng":152.9492079493001,"count":0,"salCode":"10047","state":"New South Wales"},{"name":"Amaroo (NSW)","lat":-33.156524879982484,"lng":148.92211140338864,"count":0,"salCode":"10048","state":"New South Wales"},{"name":"Ambarvale","lat":-34.090445995803,"lng":150.7923133044799,"count":0,"salCode":"10049","state":"New South Wales"},{"name":"Amosfield","lat":-28.595323285793665,"lng":152.0664358479102,"count":0,"salCode":"10050","state":"New South Wales"},{"name":"Anabranch North","lat":-33.28889086330878,"lng":141.87031530786032,"count":0,"salCode":"10051","state":"New South Wales"},{"name":"Anabranch South","lat":-33.98850820664915,"lng":141.78150777468008,"count":0,"salCode":"10052","state":"New South Wales"},{"name":"Anambah","lat":-32.67991669129901,"lng":151.50437967337862,"count":0,"salCode":"10053","state":"New South Wales"},{"name":"Ando","lat":-36.71514849452371,"lng":149.2769813362847,"count":0,"salCode":"10054","state":"New South Wales"},{"name":"Anembo","lat":-35.79264642974289,"lng":149.45576022001634,"count":0,"salCode":"10055","state":"New South Wales"},{"name":"Angledale","lat":-36.63109971454177,"lng":149.86661750026093,"count":0,"salCode":"10056","state":"New South Wales"},{"name":"Angledool","lat":-29.114193788148114,"lng":147.95688215095842,"count":0,"salCode":"10057","state":"New South Wales"},{"name":"Anglers Reach","lat":-36.00850959741028,"lng":148.67417840619026,"count":0,"salCode":"10058","state":"New South Wales"},{"name":"Angourie","lat":-29.472470798524732,"lng":153.3613829864361,"count":0,"salCode":"10059","state":"New South Wales"},{"name":"Angus","lat":-33.681823494434745,"lng":150.83718997163055,"count":0,"salCode":"10060","state":"New South Wales"},{"name":"Anna Bay","lat":-32.788915680571385,"lng":152.07747360971436,"count":0,"salCode":"10061","state":"New South Wales"},{"name":"Annandale (NSW)","lat":-33.88053763583918,"lng":151.17056830129033,"count":0,"salCode":"10062","state":"New South Wales"},{"name":"Annangrove","lat":-33.655424947682675,"lng":150.9434394730153,"count":0,"salCode":"10063","state":"New South Wales"},{"name":"Appin (NSW)","lat":-34.22025273897444,"lng":150.80225138388911,"count":0,"salCode":"10064","state":"New South Wales"},{"name":"Apple Tree Flat","lat":-32.683583620840125,"lng":149.70627266856573,"count":0,"salCode":"10065","state":"New South Wales"},{"name":"Appleby","lat":-30.953945052901474,"lng":150.8317642468486,"count":0,"salCode":"10066","state":"New South Wales"},{"name":"Appletree Flat","lat":-32.52643770583992,"lng":150.85539924997803,"count":0,"salCode":"10067","state":"New South Wales"},{"name":"Apsley (NSW)","lat":-32.601148361376566,"lng":148.94696385962496,"count":0,"salCode":"10068","state":"New South Wales"},{"name":"Arable","lat":-36.40500965187109,"lng":148.97245687815706,"count":0,"salCode":"10069","state":"New South Wales"},{"name":"Arakoon","lat":-30.913019137215255,"lng":153.06353647970727,"count":0,"salCode":"10070","state":"New South Wales"},{"name":"Araluen (NSW)","lat":-35.667405182936086,"lng":149.83106930211596,"count":0,"salCode":"10071","state":"New South Wales"},{"name":"Aratula (NSW)","lat":-35.798641873462344,"lng":145.28232613772616,"count":0,"salCode":"10072","state":"New South Wales"},{"name":"Arcadia (NSW)","lat":-33.602721355372935,"lng":151.07786579023215,"count":0,"salCode":"10073","state":"New South Wales"},{"name":"Arcadia Vale","lat":-33.06049502425458,"lng":151.57914199439358,"count":0,"salCode":"10074","state":"New South Wales"},{"name":"Ardglen","lat":-31.709881615808506,"lng":150.79840001844838,"count":0,"salCode":"10075","state":"New South Wales"},{"name":"Arding","lat":-30.56787059875684,"lng":151.50205087087613,"count":0,"salCode":"10076","state":"New South Wales"},{"name":"Ardlethan","lat":-34.351726647311175,"lng":146.85581209334705,"count":0,"salCode":"10077","state":"New South Wales"},{"name":"Argalong","lat":-35.29145660722778,"lng":148.418440012915,"count":0,"salCode":"10078","state":"New South Wales"},{"name":"Argenton","lat":-32.93343639086809,"lng":151.6318022103847,"count":0,"salCode":"10079","state":"New South Wales"},{"name":"Argents Hill","lat":-30.617949514586883,"lng":152.76496495326478,"count":0,"salCode":"10080","state":"New South Wales"},{"name":"Argoon","lat":-34.90069622762406,"lng":145.68658793007813,"count":0,"salCode":"10081","state":"New South Wales"},{"name":"Ariah Park","lat":-34.31195174187694,"lng":147.17793754574203,"count":0,"salCode":"10082","state":"New South Wales"},{"name":"Arkell","lat":-33.74721724365909,"lng":149.39633393974756,"count":0,"salCode":"10083","state":"New South Wales"},{"name":"Arkstone","lat":-34.0619242941069,"lng":149.6583370793465,"count":0,"salCode":"10084","state":"New South Wales"},{"name":"Armatree","lat":-31.38862779976946,"lng":148.53307304793296,"count":0,"salCode":"10085","state":"New South Wales"},{"name":"Armidale","lat":-30.498568152813345,"lng":151.71974453716965,"count":0,"salCode":"10086","state":"New South Wales"},{"name":"Arncliffe","lat":-33.93860492520233,"lng":151.1468940678901,"count":0,"salCode":"10087","state":"New South Wales"},{"name":"Arndell Park","lat":-33.78679867917643,"lng":150.881018019755,"count":0,"salCode":"10088","state":"New South Wales"},{"name":"Arrawarra","lat":-30.05625057316463,"lng":153.19196250346198,"count":0,"salCode":"10089","state":"New South Wales"},{"name":"Arrawarra Headland","lat":-30.064880249032775,"lng":153.1997023019869,"count":0,"salCode":"10090","state":"New South Wales"},{"name":"Artarmon","lat":-33.81116857040167,"lng":151.18496805455135,"count":0,"salCode":"10091","state":"New South Wales"},{"name":"Arthurville","lat":-32.56028286388802,"lng":148.70939456570326,"count":0,"salCode":"10092","state":"New South Wales"},{"name":"Arumpo","lat":-33.461463149072735,"lng":143.16557480593602,"count":0,"salCode":"10093","state":"New South Wales"},{"name":"Ashbury","lat":-33.90108781017046,"lng":151.11732185493196,"count":0,"salCode":"10094","state":"New South Wales"},{"name":"Ashby (NSW)","lat":-29.441507023939156,"lng":153.1841948943087,"count":0,"salCode":"10095","state":"New South Wales"},{"name":"Ashby Heights","lat":-29.385848726444223,"lng":153.1795732850043,"count":0,"salCode":"10096","state":"New South Wales"},{"name":"Ashby Island","lat":-29.423198254368746,"lng":153.2021742152483,"count":0,"salCode":"10097","state":"New South Wales"},{"name":"Ashcroft","lat":-33.91773435283392,"lng":150.90248504194147,"count":0,"salCode":"10098","state":"New South Wales"},{"name":"Ashfield (NSW)","lat":-33.88784079699411,"lng":151.12655341897963,"count":0,"salCode":"10099","state":"New South Wales"},{"name":"Ashford (NSW)","lat":-29.337119919514887,"lng":151.1768712719876,"count":0,"salCode":"10100","state":"New South Wales"},{"name":"Ashley","lat":-29.249780762862528,"lng":149.76814509695689,"count":0,"salCode":"10101","state":"New South Wales"},{"name":"Ashmont","lat":-35.12390266865849,"lng":147.33029905331722,"count":0,"salCode":"10102","state":"New South Wales"},{"name":"Ashtonfield","lat":-32.7727115834579,"lng":151.59888579436455,"count":0,"salCode":"10103","state":"New South Wales"},{"name":"Asquith","lat":-33.68970007945647,"lng":151.11501069236954,"count":0,"salCode":"10104","state":"New South Wales"},{"name":"Atholwood","lat":-29.106892309244756,"lng":151.01527405647943,"count":0,"salCode":"10105","state":"New South Wales"},{"name":"Attunga","lat":-30.926785058381316,"lng":150.80950937304,"count":0,"salCode":"10106","state":"New South Wales"},{"name":"Auburn (NSW)","lat":-33.852675931865505,"lng":151.02126974710853,"count":0,"salCode":"10107","state":"New South Wales"},{"name":"Auburn Vale","lat":-29.82677306842627,"lng":151.04575277345253,"count":0,"salCode":"10108","state":"New South Wales"},{"name":"Austinmer","lat":-34.30411991844325,"lng":150.93126625795082,"count":0,"salCode":"10109","state":"New South Wales"},{"name":"Austral","lat":-33.919106170835356,"lng":150.8074800582481,"count":0,"salCode":"10110","state":"New South Wales"},{"name":"Austral Eden","lat":-31.02470160208175,"lng":152.91651504966183,"count":0,"salCode":"10111","state":"New South Wales"},{"name":"Avalon Beach","lat":-33.628068043582864,"lng":151.33093379001866,"count":0,"salCode":"10112","state":"New South Wales"},{"name":"Avisford","lat":-32.73470620568151,"lng":149.48811614053193,"count":0,"salCode":"10113","state":"New South Wales"},{"name":"Avoca (NSW)","lat":-34.58081978405912,"lng":150.47528182384028,"count":0,"salCode":"10114","state":"New South Wales"},{"name":"Avoca Beach","lat":-33.465341625259754,"lng":151.43257806051966,"count":0,"salCode":"10115","state":"New South Wales"},{"name":"Avon (NSW)","lat":-34.43923371788176,"lng":150.64491515895185,"count":0,"salCode":"10116","state":"New South Wales"},{"name":"Avondale (NSW)","lat":-34.515835062584266,"lng":150.75701312278326,"count":0,"salCode":"10117","state":"New South Wales"},{"name":"Avonside","lat":-36.396034805430084,"lng":148.708716585836,"count":0,"salCode":"10118","state":"New South Wales"},{"name":"Awaba","lat":-33.03348139471239,"lng":151.53874546983667,"count":0,"salCode":"10119","state":"New South Wales"},{"name":"Aylmerton","lat":-34.4199330505757,"lng":150.4968100889849,"count":0,"salCode":"10120","state":"New South Wales"},{"name":"Baan Baa","lat":-30.558455745647482,"lng":149.99410859371184,"count":0,"salCode":"10121","state":"New South Wales"},{"name":"Babinda (NSW)","lat":-31.936037627741868,"lng":146.53880129400014,"count":0,"salCode":"10122","state":"New South Wales"},{"name":"Babyl Creek","lat":-28.70973135324383,"lng":152.78974418756138,"count":0,"salCode":"10123","state":"New South Wales"},{"name":"Back Creek (Bland - NSW)","lat":-33.83123112456305,"lng":147.52660558437884,"count":0,"salCode":"10124","state":"New South Wales"},{"name":"Back Creek (Gwydir - NSW)","lat":-30.087544232378633,"lng":150.29922266198415,"count":0,"salCode":"10125","state":"New South Wales"},{"name":"Back Creek (Mid-Coast - NSW)","lat":-31.953493979596452,"lng":152.04128201659216,"count":0,"salCode":"10126","state":"New South Wales"},{"name":"Back Creek (Queanbeyan-Palerang Regional - NSW)","lat":-35.350954305444546,"lng":149.95176174329362,"count":0,"salCode":"10127","state":"New South Wales"},{"name":"Back Creek (Tenterfield - NSW)","lat":-28.995601706514947,"lng":151.71272773664057,"count":0,"salCode":"10128","state":"New South Wales"},{"name":"Back Creek (Tweed - NSW)","lat":-28.40307890154949,"lng":153.18458528700538,"count":0,"salCode":"10129","state":"New South Wales"},{"name":"Back Forest","lat":-34.83582544645627,"lng":150.66864013306844,"count":0,"salCode":"10130","state":"New South Wales"},{"name":"Backmede","lat":-28.76159749305315,"lng":153.02371204665437,"count":0,"salCode":"10131","state":"New South Wales"},{"name":"Backwater","lat":-30.022107982508132,"lng":151.96605072043084,"count":0,"salCode":"10132","state":"New South Wales"},{"name":"Badgerys Creek","lat":-33.875220246660874,"lng":150.75018195742763,"count":0,"salCode":"10133","state":"New South Wales"},{"name":"Badja","lat":-36.035846387298946,"lng":149.51524080010668,"count":0,"salCode":"10134","state":"New South Wales"},{"name":"Baerami","lat":-32.38622495230761,"lng":150.4403978715975,"count":0,"salCode":"10135","state":"New South Wales"},{"name":"Baerami Creek","lat":-32.581879586687805,"lng":150.5077745753995,"count":0,"salCode":"10136","state":"New South Wales"},{"name":"Bagnoo","lat":-31.459024612516963,"lng":152.53932541367874,"count":0,"salCode":"10137","state":"New South Wales"},{"name":"Bago","lat":-31.531532342193845,"lng":152.6397743323941,"count":0,"salCode":"10138","state":"New South Wales"},{"name":"Bagotville","lat":-28.975471917087546,"lng":153.40911980629198,"count":0,"salCode":"10139","state":"New South Wales"},{"name":"Bakers Creek (Mid-Coast - NSW)","lat":-31.980158802883903,"lng":152.1012629630937,"count":0,"salCode":"10140","state":"New South Wales"},{"name":"Bakers Creek (Nambucca Valley - NSW)","lat":-30.85034908607399,"lng":152.71200819759773,"count":0,"salCode":"10141","state":"New South Wales"},{"name":"Bakers Creek (Uralla - NSW)","lat":-30.331386689681295,"lng":150.97782590692643,"count":0,"salCode":"10142","state":"New South Wales"},{"name":"Bakers Swamp","lat":-32.78942885597482,"lng":148.96882277985057,"count":0,"salCode":"10143","state":"New South Wales"},{"name":"Balaclava (NSW)","lat":-34.43996086312376,"lng":150.47826855701908,"count":0,"salCode":"10144","state":"New South Wales"},{"name":"Balala","lat":-30.60380422345756,"lng":151.2725514640426,"count":0,"salCode":"10145","state":"New South Wales"},{"name":"Balcolyn","lat":-33.09359387680676,"lng":151.55135249426144,"count":0,"salCode":"10146","state":"New South Wales"},{"name":"Bald Blair","lat":-30.16540095115535,"lng":151.78928620243556,"count":0,"salCode":"10147","state":"New South Wales"},{"name":"Bald Hills (NSW)","lat":-36.91406766288988,"lng":149.83177491060763,"count":0,"salCode":"10148","state":"New South Wales"},{"name":"Bald Nob","lat":-29.678872511869894,"lng":151.98971672903792,"count":0,"salCode":"10149","state":"New South Wales"},{"name":"Bald Ridge","lat":-33.9275064190287,"lng":149.41329608048872,"count":0,"salCode":"10150","state":"New South Wales"},{"name":"Baldersleigh","lat":-30.23786172352993,"lng":151.3693962997757,"count":0,"salCode":"10151","state":"New South Wales"},{"name":"Baldry","lat":-32.8951233364538,"lng":148.4964733825492,"count":0,"salCode":"10152","state":"New South Wales"},{"name":"Balfours Peak","lat":-29.44735688962537,"lng":150.79570439130444,"count":0,"salCode":"10153","state":"New South Wales"},{"name":"Balgowlah","lat":-33.79675014680437,"lng":151.26405996923353,"count":0,"salCode":"10154","state":"New South Wales"},{"name":"Balgowlah Heights","lat":-33.80802424768934,"lng":151.26924687295403,"count":0,"salCode":"10155","state":"New South Wales"},{"name":"Balgownie","lat":-34.387654254006506,"lng":150.87110321411848,"count":0,"salCode":"10156","state":"New South Wales"},{"name":"Balickera","lat":-32.65994529406859,"lng":151.80919294897058,"count":0,"salCode":"10157","state":"New South Wales"},{"name":"Balladoran","lat":-31.864452293221394,"lng":148.60768233759305,"count":0,"salCode":"10158","state":"New South Wales"},{"name":"Ballalaba","lat":-35.62173858210624,"lng":149.63834481106284,"count":0,"salCode":"10159","state":"New South Wales"},{"name":"Balldale","lat":-35.834234312148595,"lng":146.52688909018255,"count":0,"salCode":"10160","state":"New South Wales"},{"name":"Ballengarra","lat":-31.316646222677736,"lng":152.72770595703227,"count":0,"salCode":"10161","state":"New South Wales"},{"name":"Ballimore","lat":-32.2030798301967,"lng":148.88407915396337,"count":0,"salCode":"10162","state":"New South Wales"},{"name":"Ballina","lat":-28.848511614503316,"lng":153.5608525686418,"count":0,"salCode":"10163","state":"New South Wales"},{"name":"Ballyroe","lat":-34.05519164881064,"lng":149.5591058845231,"count":0,"salCode":"10164","state":"New South Wales"},{"name":"Balmain","lat":-33.85713477204962,"lng":151.18071431714418,"count":0,"salCode":"10165","state":"New South Wales"},{"name":"Balmain East","lat":-33.85736306961104,"lng":151.19249649246305,"count":0,"salCode":"10166","state":"New South Wales"},{"name":"Balmoral (Lake Macquarie - NSW)","lat":-33.047535492460376,"lng":151.58454035556122,"count":0,"salCode":"10167","state":"New South Wales"},{"name":"Balmoral (Wingecarribee - NSW)","lat":-34.294724962372094,"lng":150.526135259697,"count":0,"salCode":"10168","state":"New South Wales"},{"name":"Balranald","lat":-34.62626515707987,"lng":143.35616078429513,"count":0,"salCode":"10169","state":"New South Wales"},{"name":"Bamarang","lat":-34.90714840070887,"lng":150.5105465646621,"count":0,"salCode":"10170","state":"New South Wales"},{"name":"Banda Banda","lat":-31.196322989042216,"lng":152.45656403838092,"count":0,"salCode":"10171","state":"New South Wales"},{"name":"Bandon Grove","lat":-32.27444022146977,"lng":151.69517469333397,"count":0,"salCode":"10172","state":"New South Wales"},{"name":"Bangadang","lat":-35.273461479023204,"lng":147.97886083153958,"count":0,"salCode":"10173","state":"New South Wales"},{"name":"Bangalee (NSW)","lat":-34.84459577308041,"lng":150.5531598792759,"count":0,"salCode":"10174","state":"New South Wales"},{"name":"Bangalow","lat":-28.69688146274016,"lng":153.51984114690296,"count":0,"salCode":"10175","state":"New South Wales"},{"name":"Bangheet","lat":-29.837658785420512,"lng":150.42102019306665,"count":0,"salCode":"10176","state":"New South Wales"},{"name":"Bango","lat":-34.73952075456376,"lng":148.94406047252895,"count":0,"salCode":"10177","state":"New South Wales"},{"name":"Bangor (NSW)","lat":-34.01276179810668,"lng":151.0345409607021,"count":0,"salCode":"10178","state":"New South Wales"},{"name":"Banksia","lat":-33.94653387149726,"lng":151.14319025405948,"count":0,"salCode":"10179","state":"New South Wales"},{"name":"Banksmeadow","lat":-33.95891744385759,"lng":151.21144886158365,"count":0,"salCode":"10180","state":"New South Wales"},{"name":"Bankstown","lat":-33.91999366152111,"lng":151.03297186978466,"count":0,"salCode":"10181","state":"New South Wales"},{"name":"Bankstown Aerodrome","lat":-33.923624043834735,"lng":150.98995247109576,"count":0,"salCode":"10182","state":"New South Wales"},{"name":"Bannaby","lat":-34.42350245130788,"lng":149.97845414208248,"count":0,"salCode":"10183","state":"New South Wales"},{"name":"Bannister (NSW)","lat":-34.635646242608495,"lng":149.5163461741701,"count":0,"salCode":"10184","state":"New South Wales"},{"name":"Banoon","lat":-30.52071804597595,"lng":150.40806345374608,"count":0,"salCode":"10185","state":"New South Wales"},{"name":"Banora Point","lat":-28.225036038685953,"lng":153.53974482021835,"count":0,"salCode":"10186","state":"New South Wales"},{"name":"Banyabba","lat":-29.365287482965915,"lng":152.9396017367532,"count":0,"salCode":"10187","state":"New South Wales"},{"name":"Bar Beach","lat":-32.94068545104719,"lng":151.76805408071684,"count":0,"salCode":"10188","state":"New South Wales"},{"name":"Bar Point","lat":-33.50112222617295,"lng":151.17317723441457,"count":0,"salCode":"10189","state":"New South Wales"},{"name":"Bara","lat":-32.56950782653614,"lng":149.84748743544915,"count":0,"salCode":"10190","state":"New South Wales"},{"name":"Baradine","lat":-30.93848590520384,"lng":149.05347860422026,"count":0,"salCode":"10191","state":"New South Wales"},{"name":"Barangaroo","lat":-33.85929900617539,"lng":151.20186050352643,"count":0,"salCode":"10192","state":"New South Wales"},{"name":"Barcoongere","lat":-29.882641773134928,"lng":153.220022646835,"count":0,"salCode":"10193","state":"New South Wales"},{"name":"Barden Ridge","lat":-34.038726659159046,"lng":151.0047539689491,"count":0,"salCode":"10194","state":"New South Wales"},{"name":"Bardia","lat":-33.977273884083985,"lng":150.86359998168072,"count":0,"salCode":"10195","state":"New South Wales"},{"name":"Bardwell Park","lat":-33.93399885020839,"lng":151.12597480925078,"count":0,"salCode":"10196","state":"New South Wales"},{"name":"Bardwell Valley","lat":-33.93594910595279,"lng":151.1324771717029,"count":0,"salCode":"10197","state":"New South Wales"},{"name":"Barellan","lat":-34.20154108228216,"lng":146.58324490175463,"count":0,"salCode":"10198","state":"New South Wales"},{"name":"Bargo","lat":-34.283694741967686,"lng":150.5816971352252,"count":0,"salCode":"10199","state":"New South Wales"},{"name":"Barham","lat":-35.62272093428491,"lng":144.22511058296496,"count":0,"salCode":"10200","state":"New South Wales"},{"name":"Barigan","lat":-32.49030326994013,"lng":149.99503784955363,"count":0,"salCode":"10201","state":"New South Wales"},{"name":"Barkers Vale","lat":-28.517360759972696,"lng":153.13162324079704,"count":0,"salCode":"10202","state":"New South Wales"},{"name":"Barmedman","lat":-34.07287789226876,"lng":147.49262735383996,"count":0,"salCode":"10203","state":"New South Wales"},{"name":"Barneys Reef","lat":-32.179292549553146,"lng":149.50720313340435,"count":0,"salCode":"10204","state":"New South Wales"},{"name":"Barnsley","lat":-32.93193676922978,"lng":151.5824014206726,"count":0,"salCode":"10205","state":"New South Wales"},{"name":"Barooga","lat":-35.919766063699875,"lng":145.68609313831826,"count":0,"salCode":"10206","state":"New South Wales"},{"name":"Barraba","lat":-30.427578539619926,"lng":150.5509977396101,"count":0,"salCode":"10207","state":"New South Wales"},{"name":"Barrack Heights","lat":-34.56259806264412,"lng":150.85379536858284,"count":0,"salCode":"10208","state":"New South Wales"},{"name":"Barrack Point","lat":-34.562443393979756,"lng":150.86917998782832,"count":0,"salCode":"10209","state":"New South Wales"},{"name":"Barraganyatti","lat":-30.879711178542493,"lng":152.89117117567292,"count":0,"salCode":"10210","state":"New South Wales"},{"name":"Barragga Bay","lat":-36.503488573389156,"lng":150.05957926086728,"count":0,"salCode":"10211","state":"New South Wales"},{"name":"Barratta (NSW)","lat":-35.17962593615238,"lng":144.4957001177601,"count":0,"salCode":"10212","state":"New South Wales"},{"name":"Barren Grounds","lat":-34.693742081450935,"lng":150.73608433641772,"count":0,"salCode":"10213","state":"New South Wales"},{"name":"Barrengarry","lat":-34.67373473518655,"lng":150.53180921870546,"count":0,"salCode":"10214","state":"New South Wales"},{"name":"Barretts Creek","lat":-29.34250759747646,"lng":152.75561231009632,"count":0,"salCode":"10215","state":"New South Wales"},{"name":"Barringella","lat":-34.91142042864788,"lng":150.48055703674913,"count":0,"salCode":"10216","state":"New South Wales"},{"name":"Barrington (NSW)","lat":-32.0045472894081,"lng":151.88538761743922,"count":0,"salCode":"10217","state":"New South Wales"},{"name":"Barrington Tops","lat":-31.927170138996733,"lng":151.53393685089375,"count":0,"salCode":"10218","state":"New South Wales"},{"name":"Barry (Blayney - NSW)","lat":-33.6463755443217,"lng":149.2644434058523,"count":0,"salCode":"10219","state":"New South Wales"},{"name":"Barry (Tamworth Regional - NSW)","lat":-31.56876260085988,"lng":151.2985361801827,"count":0,"salCode":"10220","state":"New South Wales"},{"name":"Barwang","lat":-34.42832569253609,"lng":148.44494606753855,"count":0,"salCode":"10221","state":"New South Wales"},{"name":"Baryulgil","lat":-29.21814930999994,"lng":152.5991058589704,"count":0,"salCode":"10222","state":"New South Wales"},{"name":"Basin View","lat":-35.0980562683547,"lng":150.56322923903102,"count":0,"salCode":"10223","state":"New South Wales"},{"name":"Bass Hill","lat":-33.89847120965755,"lng":150.9940285264213,"count":0,"salCode":"10224","state":"New South Wales"},{"name":"Bassendean (NSW)","lat":-30.046024775994805,"lng":151.1425542018129,"count":0,"salCode":"10225","state":"New South Wales"},{"name":"Batar Creek","lat":-31.673862386607503,"lng":152.68828843865995,"count":0,"salCode":"10226","state":"New South Wales"},{"name":"Bateau Bay","lat":-33.38454204599423,"lng":151.47534319822628,"count":0,"salCode":"10227","state":"New South Wales"},{"name":"Batehaven","lat":-35.731840032951325,"lng":150.20313907522572,"count":0,"salCode":"10228","state":"New South Wales"},{"name":"Batemans Bay","lat":-35.71044403727402,"lng":150.15100636594283,"count":0,"salCode":"10229","state":"New South Wales"},{"name":"Bathampton","lat":-33.500508797223645,"lng":149.4113188695395,"count":0,"salCode":"10230","state":"New South Wales"},{"name":"Bathurst","lat":-33.418038704795734,"lng":149.58580959646196,"count":0,"salCode":"10231","state":"New South Wales"},{"name":"Batlow","lat":-35.52660155355044,"lng":148.12751242072855,"count":0,"salCode":"10232","state":"New South Wales"},{"name":"Baulkham Hills","lat":-33.7546035919221,"lng":150.98300767646901,"count":0,"salCode":"10233","state":"New South Wales"},{"name":"Baw Baw (NSW)","lat":-34.72972564694812,"lng":149.66110565042314,"count":0,"salCode":"10234","state":"New South Wales"},{"name":"Bawley Point","lat":-35.4948263576788,"lng":150.3878017932417,"count":0,"salCode":"10235","state":"New South Wales"},{"name":"Baxters Ridge","lat":-31.688876882440105,"lng":151.91505599911926,"count":0,"salCode":"10236","state":"New South Wales"},{"name":"Bayview (NSW)","lat":-33.65990215140665,"lng":151.29556356430118,"count":0,"salCode":"10237","state":"New South Wales"},{"name":"Beacon Hill","lat":-33.75156961592878,"lng":151.26091153978282,"count":0,"salCode":"10238","state":"New South Wales"},{"name":"Beaconsfield (NSW)","lat":-33.911595091099954,"lng":151.20046328605008,"count":0,"salCode":"10239","state":"New South Wales"},{"name":"Bean Creek","lat":-28.576791797232637,"lng":152.54268639800168,"count":0,"salCode":"10240","state":"New South Wales"},{"name":"Bearbong","lat":-31.682719828890775,"lng":148.8729110248801,"count":0,"salCode":"10241","state":"New South Wales"},{"name":"Beaumont (NSW)","lat":-34.78046930648939,"lng":150.57393997468722,"count":0,"salCode":"10242","state":"New South Wales"},{"name":"Beaumont Hills","lat":-33.69792749443313,"lng":150.94030089192185,"count":0,"salCode":"10243","state":"New South Wales"},{"name":"Beckom","lat":-34.30116571129183,"lng":147.00169349843242,"count":0,"salCode":"10244","state":"New South Wales"},{"name":"Bective","lat":-30.984456581536705,"lng":150.71545563885633,"count":0,"salCode":"10245","state":"New South Wales"},{"name":"Bectric","lat":-34.494947388447336,"lng":147.2691324387501,"count":0,"salCode":"10246","state":"New South Wales"},{"name":"Bedgerabong","lat":-33.359750310748005,"lng":147.69835267814642,"count":0,"salCode":"10247","state":"New South Wales"},{"name":"Beechwood","lat":-31.439670926510964,"lng":152.67858693172633,"count":0,"salCode":"10248","state":"New South Wales"},{"name":"Beecroft","lat":-33.752105673031494,"lng":151.0608494497765,"count":0,"salCode":"10249","state":"New South Wales"},{"name":"Beecroft Peninsula","lat":-35.04471565856732,"lng":150.80870190893478,"count":0,"salCode":"10250","state":"New South Wales"},{"name":"Beelbangera","lat":-34.24011069522854,"lng":146.10331192108583,"count":0,"salCode":"10251","state":"New South Wales"},{"name":"Beemunnel","lat":-31.690440913808143,"lng":147.86869163452843,"count":0,"salCode":"10252","state":"New South Wales"},{"name":"Bega","lat":-36.67739668174589,"lng":149.843404373324,"count":0,"salCode":"10253","state":"New South Wales"},{"name":"Beggan Beggan","lat":-34.652722380242345,"lng":148.2898314792234,"count":0,"salCode":"10254","state":"New South Wales"},{"name":"Belanglo","lat":-34.507415925151534,"lng":150.22610275710056,"count":0,"salCode":"10255","state":"New South Wales"},{"name":"Belbora","lat":-32.00860636290752,"lng":152.18071770400425,"count":0,"salCode":"10256","state":"New South Wales"},{"name":"Belfield","lat":-33.90410799450962,"lng":151.08426123687747,"count":0,"salCode":"10257","state":"New South Wales"},{"name":"Belford","lat":-32.66065029398158,"lng":151.29584090561391,"count":0,"salCode":"10258","state":"New South Wales"},{"name":"Belfrayden","lat":-35.117258898190435,"lng":147.05501613671436,"count":0,"salCode":"10259","state":"New South Wales"},{"name":"Belgravia","lat":-33.09367252924465,"lng":149.01225853987472,"count":0,"salCode":"10260","state":"New South Wales"},{"name":"Belimbla Park","lat":-34.08419051280323,"lng":150.53539310025417,"count":0,"salCode":"10261","state":"New South Wales"},{"name":"Bell (NSW)","lat":-33.4886371286398,"lng":150.3010404038002,"count":0,"salCode":"10262","state":"New South Wales"},{"name":"Bella Vista","lat":-33.74153490085911,"lng":150.95695383963394,"count":0,"salCode":"10263","state":"New South Wales"},{"name":"Bellambi","lat":-34.36793290281953,"lng":150.92313154511868,"count":0,"salCode":"10264","state":"New South Wales"},{"name":"Bellangry","lat":-31.311225749085104,"lng":152.57073527337988,"count":0,"salCode":"10265","state":"New South Wales"},{"name":"Bellata","lat":-29.857128877934908,"lng":149.73731247193845,"count":0,"salCode":"10266","state":"New South Wales"},{"name":"Bellawongarah","lat":-34.764584472046465,"lng":150.6123348274,"count":0,"salCode":"10267","state":"New South Wales"},{"name":"Bellbird","lat":-32.85264772917642,"lng":151.32208397277944,"count":0,"salCode":"10268","state":"New South Wales"},{"name":"Bellbird Heights","lat":-32.84876562688502,"lng":151.32996400600004,"count":0,"salCode":"10269","state":"New South Wales"},{"name":"Bellbrook","lat":-30.721947010277617,"lng":152.49091069624623,"count":0,"salCode":"10270","state":"New South Wales"},{"name":"Bellevue Hill","lat":-33.87936787401318,"lng":151.25320608153137,"count":0,"salCode":"10271","state":"New South Wales"},{"name":"Bellimbopinni","lat":-31.009122468186884,"lng":152.90414849926182,"count":0,"salCode":"10272","state":"New South Wales"},{"name":"Bellingen","lat":-30.444048219658633,"lng":152.88000878452968,"count":0,"salCode":"10273","state":"New South Wales"},{"name":"Bellmount Forest","lat":-34.950055534392654,"lng":149.2588723535739,"count":0,"salCode":"10274","state":"New South Wales"},{"name":"Belltrees","lat":-31.96353302747603,"lng":151.11872687358087,"count":0,"salCode":"10275","state":"New South Wales"},{"name":"Belmont (NSW)","lat":-33.030166709097344,"lng":151.6688780665821,"count":0,"salCode":"10276","state":"New South Wales"},{"name":"Belmont North","lat":-33.01685055606786,"lng":151.67077331253924,"count":0,"salCode":"10277","state":"New South Wales"},{"name":"Belmont South","lat":-33.04958373595513,"lng":151.66044333752558,"count":0,"salCode":"10278","state":"New South Wales"},{"name":"Belmore","lat":-33.91717834534551,"lng":151.0877225368168,"count":0,"salCode":"10279","state":"New South Wales"},{"name":"Belmore River","lat":-31.08228911796398,"lng":152.97567829697846,"count":0,"salCode":"10280","state":"New South Wales"},{"name":"Beloka","lat":-36.53516393270992,"lng":148.72128975766677,"count":0,"salCode":"10281","state":"New South Wales"},{"name":"Belowra","lat":-36.07436059316258,"lng":149.7204773268847,"count":0,"salCode":"10282","state":"New South Wales"},{"name":"Belrose","lat":-33.72857813044872,"lng":151.20915120955684,"count":0,"salCode":"10283","state":"New South Wales"},{"name":"Bemboka","lat":-36.56739999454489,"lng":149.59454075568377,"count":0,"salCode":"10284","state":"New South Wales"},{"name":"Ben Bullen","lat":-33.227526590840384,"lng":150.05628659118796,"count":0,"salCode":"10285","state":"New South Wales"},{"name":"Ben Lomond (NSW)","lat":-30.00954398674299,"lng":151.63597139748737,"count":0,"salCode":"10286","state":"New South Wales"},{"name":"Benandarah","lat":-35.66075185198449,"lng":150.2406522135855,"count":0,"salCode":"10287","state":"New South Wales"},{"name":"Bendalong","lat":-35.237686447220405,"lng":150.51986822904465,"count":0,"salCode":"10288","state":"New South Wales"},{"name":"Bendemeer","lat":-30.797293182426877,"lng":151.23463001849726,"count":0,"salCode":"10289","state":"New South Wales"},{"name":"Bendick Murrell","lat":-34.169527620443745,"lng":148.47766068257994,"count":0,"salCode":"10290","state":"New South Wales"},{"name":"Bendolba","lat":-32.3415304152038,"lng":151.7313403958251,"count":0,"salCode":"10291","state":"New South Wales"},{"name":"Bendoura","lat":-35.53712056051667,"lng":149.68680133522102,"count":0,"salCode":"10292","state":"New South Wales"},{"name":"Benerembah","lat":-34.36928243675891,"lng":145.85177272750607,"count":0,"salCode":"10293","state":"New South Wales"},{"name":"Bengalla","lat":-32.29686273590461,"lng":150.82766681168488,"count":0,"salCode":"10294","state":"New South Wales"},{"name":"Bennetts Green","lat":-32.99889714996222,"lng":151.6883033656227,"count":0,"salCode":"10295","state":"New South Wales"},{"name":"Benolong","lat":-32.538581955588135,"lng":148.69381344762246,"count":0,"salCode":"10296","state":"New South Wales"},{"name":"Bensville","lat":-33.499672444902814,"lng":151.38521844856575,"count":0,"salCode":"10297","state":"New South Wales"},{"name":"Bentley (NSW)","lat":-28.741467458427458,"lng":153.0885373610859,"count":0,"salCode":"10298","state":"New South Wales"},{"name":"Berala","lat":-33.8736466070491,"lng":151.03362478471604,"count":0,"salCode":"10299","state":"New South Wales"},{"name":"Berambing","lat":-33.53569071215381,"lng":150.4418242593206,"count":0,"salCode":"10300","state":"New South Wales"},{"name":"Beresfield","lat":-32.80548192901025,"lng":151.64096383984545,"count":0,"salCode":"10301","state":"New South Wales"},{"name":"Bergalia","lat":-35.991706331585796,"lng":150.1075513664815,"count":0,"salCode":"10302","state":"New South Wales"},{"name":"Berkeley","lat":-34.48598708599285,"lng":150.83959127492577,"count":0,"salCode":"10303","state":"New South Wales"},{"name":"Berkeley Vale","lat":-33.34568686159548,"lng":151.4374958025523,"count":0,"salCode":"10304","state":"New South Wales"},{"name":"Berkshire Park","lat":-33.67561795548061,"lng":150.77932004763815,"count":0,"salCode":"10305","state":"New South Wales"},{"name":"Berlang","lat":-35.68834789618418,"lng":149.67004114013525,"count":0,"salCode":"10306","state":"New South Wales"},{"name":"Bermagui","lat":-36.433117615748024,"lng":150.06043464862898,"count":0,"salCode":"10307","state":"New South Wales"},{"name":"Berowra","lat":-33.629738135476515,"lng":151.15581050112917,"count":0,"salCode":"10308","state":"New South Wales"},{"name":"Berowra Heights","lat":-33.60271862336114,"lng":151.12961242652193,"count":0,"salCode":"10309","state":"New South Wales"},{"name":"Berowra Waters","lat":-33.60326201141664,"lng":151.11931745346925,"count":0,"salCode":"10310","state":"New South Wales"},{"name":"Berrambool","lat":-36.88271682968323,"lng":149.91108813368686,"count":0,"salCode":"10311","state":"New South Wales"},{"name":"Berrara","lat":-35.2070977734913,"lng":150.5484057423874,"count":0,"salCode":"10312","state":"New South Wales"},{"name":"Berremangra","lat":-34.73946779126215,"lng":148.47915469982004,"count":0,"salCode":"10313","state":"New South Wales"},{"name":"Berrico","lat":-32.09231184071503,"lng":151.77102934939631,"count":0,"salCode":"10314","state":"New South Wales"},{"name":"Berridale","lat":-36.35186002123284,"lng":148.80841417650643,"count":0,"salCode":"10315","state":"New South Wales"},{"name":"Berrigal","lat":-30.01716086451221,"lng":150.10444417609216,"count":0,"salCode":"10316","state":"New South Wales"},{"name":"Berrigan","lat":-35.64505047636433,"lng":145.8360400990729,"count":0,"salCode":"10317","state":"New South Wales"},{"name":"Berrilee","lat":-33.61206424821799,"lng":151.1050495981732,"count":0,"salCode":"10318","state":"New South Wales"},{"name":"Berrima","lat":-34.47920252385192,"lng":150.31562562314556,"count":0,"salCode":"10319","state":"New South Wales"},{"name":"Berringer Lake","lat":-35.252437227709045,"lng":150.50049812884552,"count":0,"salCode":"10320","state":"New South Wales"},{"name":"Berry","lat":-34.779986227519224,"lng":150.71687441200274,"count":0,"salCode":"10321","state":"New South Wales"},{"name":"Berry Jerry","lat":-34.71468450934879,"lng":147.2656724899149,"count":0,"salCode":"10322","state":"New South Wales"},{"name":"Berry Mountain","lat":-34.765118101407374,"lng":150.6518644718025,"count":0,"salCode":"10323","state":"New South Wales"},{"name":"Berry Park","lat":-32.74072079369686,"lng":151.67420610914854,"count":0,"salCode":"10324","state":"New South Wales"},{"name":"Berthong","lat":-34.392472022556916,"lng":148.11486063386081,"count":0,"salCode":"10325","state":"New South Wales"},{"name":"Beryl","lat":-32.32985428331273,"lng":149.45247607394862,"count":0,"salCode":"10326","state":"New South Wales"},{"name":"Bethungra","lat":-34.77029562740684,"lng":147.8860503370467,"count":0,"salCode":"10327","state":"New South Wales"},{"name":"Bevendale","lat":-34.52070213980026,"lng":149.06990645040267,"count":0,"salCode":"10328","state":"New South Wales"},{"name":"Beverley Park","lat":-33.97672433643072,"lng":151.13214720123077,"count":0,"salCode":"10329","state":"New South Wales"},{"name":"Beverly Hills","lat":-33.94978005910566,"lng":151.07821581422775,"count":0,"salCode":"10330","state":"New South Wales"},{"name":"Bewong","lat":-35.083856151686234,"lng":150.53362832925495,"count":0,"salCode":"10331","state":"New South Wales"},{"name":"Bexhill","lat":-28.767308802594858,"lng":153.34930724633892,"count":0,"salCode":"10332","state":"New South Wales"},{"name":"Bexley","lat":-33.951104393979364,"lng":151.12108078383832,"count":0,"salCode":"10333","state":"New South Wales"},{"name":"Bexley North","lat":-33.94008285101298,"lng":151.1154212943487,"count":0,"salCode":"10334","state":"New South Wales"},{"name":"Biala","lat":-34.57744886502011,"lng":149.26665472671172,"count":0,"salCode":"10335","state":"New South Wales"},{"name":"Bibbenluke","lat":-36.814088773883306,"lng":149.30664659219693,"count":0,"salCode":"10336","state":"New South Wales"},{"name":"Biddon","lat":-31.5290442144869,"lng":148.73991132773486,"count":0,"salCode":"10337","state":"New South Wales"},{"name":"Bidgeemia","lat":-35.35270176924888,"lng":146.45708670896403,"count":0,"salCode":"10338","state":"New South Wales"},{"name":"Bidwill (NSW)","lat":-33.73111722224385,"lng":150.82091886434148,"count":0,"salCode":"10339","state":"New South Wales"},{"name":"Bielsdown Hills","lat":-30.36742878688627,"lng":152.6808116956753,"count":0,"salCode":"10340","state":"New South Wales"},{"name":"Big Hill (NSW)","lat":-34.51832635057324,"lng":149.9896130470272,"count":0,"salCode":"10341","state":"New South Wales"},{"name":"Big Jacks Creek","lat":-31.799037416800896,"lng":150.610385418692,"count":0,"salCode":"10342","state":"New South Wales"},{"name":"Big Ridge","lat":-32.585107728557325,"lng":151.22227386263938,"count":0,"salCode":"10343","state":"New South Wales"},{"name":"Big Springs","lat":-35.364017722406075,"lng":147.4287371738071,"count":0,"salCode":"10344","state":"New South Wales"},{"name":"Bigga","lat":-34.057504468131754,"lng":149.09859944283932,"count":0,"salCode":"10345","state":"New South Wales"},{"name":"Bilambil","lat":-28.22807349850706,"lng":153.48775597697852,"count":0,"salCode":"10346","state":"New South Wales"},{"name":"Bilambil Heights","lat":-28.21570749542621,"lng":153.4931244266876,"count":0,"salCode":"10347","state":"New South Wales"},{"name":"Bilbul","lat":-34.28420004487637,"lng":146.14785755041575,"count":0,"salCode":"10348","state":"New South Wales"},{"name":"Bilgola Beach","lat":-33.64389287576426,"lng":151.3302374560859,"count":0,"salCode":"10349","state":"New South Wales"},{"name":"Bilgola Plateau","lat":-33.64493531461697,"lng":151.31597672119412,"count":0,"salCode":"10350","state":"New South Wales"},{"name":"Billeroy","lat":-30.660685956201522,"lng":148.36710366113817,"count":0,"salCode":"10351","state":"New South Wales"},{"name":"Billilingra","lat":-36.0070223136412,"lng":149.1175607638922,"count":0,"salCode":"10352","state":"New South Wales"},{"name":"Billimari","lat":-33.675195650983085,"lng":148.59087027800004,"count":0,"salCode":"10353","state":"New South Wales"},{"name":"Billinudgel","lat":-28.507461464594158,"lng":153.5176463865507,"count":0,"salCode":"10354","state":"New South Wales"},{"name":"Billys Creek","lat":-30.18161113190176,"lng":152.59691695471386,"count":0,"salCode":"10355","state":"New South Wales"},{"name":"Billywillinga","lat":-33.290955322355266,"lng":149.43078893059126,"count":0,"salCode":"10356","state":"New South Wales"},{"name":"Bilpin","lat":-33.423976818218655,"lng":150.58486476537337,"count":0,"salCode":"10357","state":"New South Wales"},{"name":"Bimberi","lat":-35.590678670254384,"lng":148.70243280018053,"count":0,"salCode":"10358","state":"New South Wales"},{"name":"Bimbi","lat":-34.00723470460115,"lng":147.96733694964885,"count":0,"salCode":"10359","state":"New South Wales"},{"name":"Bimbimbie","lat":-35.834158019367294,"lng":150.12051304697968,"count":0,"salCode":"10360","state":"New South Wales"},{"name":"Binalong","lat":-34.63908459317188,"lng":148.71357779126814,"count":0,"salCode":"10361","state":"New South Wales"},{"name":"Binda","lat":-34.34460819724101,"lng":149.28851377092786,"count":0,"salCode":"10362","state":"New South Wales"},{"name":"Bindera","lat":-32.035847950035254,"lng":151.83264669303549,"count":0,"salCode":"10363","state":"New South Wales"},{"name":"Bingara","lat":-29.801670487218615,"lng":150.58911916536096,"count":0,"salCode":"10364","state":"New South Wales"},{"name":"Bingeebeebra Creek","lat":-28.826656944462854,"lng":152.79042767111662,"count":0,"salCode":"10365","state":"New South Wales"},{"name":"Bingie","lat":-36.01913524319464,"lng":150.14928514468232,"count":0,"salCode":"10366","state":"New South Wales"},{"name":"Bingleburra","lat":-32.37298554359527,"lng":151.62115818199626,"count":0,"salCode":"10367","state":"New South Wales"},{"name":"Biniguy","lat":-29.505725396885275,"lng":150.1477168904518,"count":0,"salCode":"10368","state":"New South Wales"},{"name":"Binjura","lat":-36.179830141280114,"lng":149.11464417337388,"count":0,"salCode":"10369","state":"New South Wales"},{"name":"Binna Burra (NSW)","lat":-28.716767979314415,"lng":153.49636959924524,"count":0,"salCode":"10370","state":"New South Wales"},{"name":"Binnaway","lat":-31.479685312539186,"lng":149.40661540065764,"count":0,"salCode":"10371","state":"New South Wales"},{"name":"Binya","lat":-34.142801090602944,"lng":146.30597846655067,"count":0,"salCode":"10372","state":"New South Wales"},{"name":"Birchgrove","lat":-33.8503261593904,"lng":151.18418125419188,"count":0,"salCode":"10373","state":"New South Wales"},{"name":"Birdwood (NSW)","lat":-31.35615692910666,"lng":152.3209531119207,"count":0,"salCode":"10374","state":"New South Wales"},{"name":"Birganbigil","lat":-35.509584877705834,"lng":145.20038361032357,"count":0,"salCode":"10375","state":"New South Wales"},{"name":"Birmingham Gardens","lat":-32.89358216347613,"lng":151.6904878352572,"count":0,"salCode":"10376","state":"New South Wales"},{"name":"Birriwa","lat":-32.09103327814552,"lng":149.5120903618995,"count":0,"salCode":"10377","state":"New South Wales"},{"name":"Birrong","lat":-33.89239484459995,"lng":151.0216149095539,"count":0,"salCode":"10378","state":"New South Wales"},{"name":"Bishops Bridge","lat":-32.75123376377016,"lng":151.49188354415747,"count":0,"salCode":"10379","state":"New South Wales"},{"name":"Bithramere","lat":-31.139474783051675,"lng":150.7700543151208,"count":0,"salCode":"10380","state":"New South Wales"},{"name":"Black Creek (Port Macquarie-Hastings - NSW)","lat":-31.59419786062606,"lng":152.6512112892079,"count":0,"salCode":"10381","state":"New South Wales"},{"name":"Black Creek (Snowy Valleys - NSW)","lat":-35.32244654611996,"lng":148.03922855081015,"count":0,"salCode":"10382","state":"New South Wales"},{"name":"Black Head","lat":-32.07163418507923,"lng":152.54340775130504,"count":0,"salCode":"10383","state":"New South Wales"},{"name":"Black Hill (NSW)","lat":-32.82678529471507,"lng":151.595923705096,"count":0,"salCode":"10384","state":"New South Wales"},{"name":"Black Hollow","lat":-31.122598531164662,"lng":148.9039844804883,"count":0,"salCode":"10385","state":"New South Wales"},{"name":"Black Mountain (NSW)","lat":-30.292790124084025,"lng":151.63482378632025,"count":0,"salCode":"10386","state":"New South Wales"},{"name":"Black Range (NSW)","lat":-36.7273690680918,"lng":149.83853754408165,"count":0,"salCode":"10387","state":"New South Wales"},{"name":"Black Springs (NSW)","lat":-33.85164395663844,"lng":149.67397083674558,"count":0,"salCode":"10388","state":"New South Wales"},{"name":"Blackalls Park","lat":-33.00243477098585,"lng":151.58366257892624,"count":0,"salCode":"10389","state":"New South Wales"},{"name":"Blackbutt (NSW)","lat":-34.570333553567714,"lng":150.8396832892894,"count":0,"salCode":"10390","state":"New South Wales"},{"name":"Blackett","lat":-33.738090646968196,"lng":150.81390428111914,"count":0,"salCode":"10391","state":"New South Wales"},{"name":"Blackheath","lat":-33.63366637321354,"lng":150.28650078817344,"count":0,"salCode":"10392","state":"New South Wales"},{"name":"Blackmans Flat","lat":-33.3182882684307,"lng":150.07225116887744,"count":0,"salCode":"10393","state":"New South Wales"},{"name":"Blackmans Point","lat":-31.38369922192963,"lng":152.8414549378907,"count":0,"salCode":"10394","state":"New South Wales"},{"name":"Blacksmiths","lat":-33.077174069386444,"lng":151.65358535637424,"count":0,"salCode":"10395","state":"New South Wales"},{"name":"Blacktown","lat":-33.772499939470464,"lng":150.90718871382427,"count":0,"salCode":"10396","state":"New South Wales"},{"name":"Blackville","lat":-31.626065943745186,"lng":150.19216675317927,"count":0,"salCode":"10397","state":"New South Wales"},{"name":"Blackwall (NSW)","lat":-33.50453444119924,"lng":151.33513761868187,"count":0,"salCode":"10398","state":"New South Wales"},{"name":"Blair Athol (NSW)","lat":-34.06246208854612,"lng":150.80264419123844,"count":0,"salCode":"10399","state":"New South Wales"},{"name":"Blairmount","lat":-34.05449630332165,"lng":150.79014123715393,"count":0,"salCode":"10400","state":"New South Wales"},{"name":"Blakebrook","lat":-28.773007405448073,"lng":153.22835529937288,"count":0,"salCode":"10401","state":"New South Wales"},{"name":"Blakehurst","lat":-33.993557507035256,"lng":151.11022690114044,"count":0,"salCode":"10402","state":"New South Wales"},{"name":"Blakney Creek","lat":-34.647944267057916,"lng":149.06512483539714,"count":0,"salCode":"10403","state":"New South Wales"},{"name":"Bland","lat":-33.978217894405304,"lng":147.56326174748827,"count":0,"salCode":"10404","state":"New South Wales"},{"name":"Blandford","lat":-31.767901079325984,"lng":150.89669150630098,"count":0,"salCode":"10405","state":"New South Wales"},{"name":"Blaxland (NSW)","lat":-33.74631310499995,"lng":150.62348009018586,"count":0,"salCode":"10406","state":"New South Wales"},{"name":"Blaxlands Creek","lat":-29.910030836453437,"lng":152.79836067357743,"count":0,"salCode":"10407","state":"New South Wales"},{"name":"Blaxlands Ridge","lat":-33.48807723183174,"lng":150.77395823077975,"count":0,"salCode":"10408","state":"New South Wales"},{"name":"Blayney","lat":-33.56425105332733,"lng":149.21491427727693,"count":0,"salCode":"10409","state":"New South Wales"},{"name":"Bligh Park","lat":-33.63834198289715,"lng":150.8033865883178,"count":0,"salCode":"10410","state":"New South Wales"},{"name":"Blighty","lat":-35.59335702620583,"lng":145.30056199685296,"count":0,"salCode":"10411","state":"New South Wales"},{"name":"Blowering","lat":-35.47906567521304,"lng":148.27447323495588,"count":0,"salCode":"10412","state":"New South Wales"},{"name":"Blue Bay","lat":-33.35456957411359,"lng":151.49992589821213,"count":0,"salCode":"10413","state":"New South Wales"},{"name":"Blue Haven","lat":-33.21349624653698,"lng":151.5018126061807,"count":0,"salCode":"10414","state":"New South Wales"},{"name":"Blue Knob","lat":-28.545588213145788,"lng":153.17716666661053,"count":0,"salCode":"10415","state":"New South Wales"},{"name":"Blue Mountains National Park","lat":-34.05230255014093,"lng":150.34488383302497,"count":0,"salCode":"10416","state":"New South Wales"},{"name":"Blue Nobby","lat":-29.074002543643143,"lng":150.6735879671524,"count":0,"salCode":"10417","state":"New South Wales"},{"name":"Blue Vale","lat":-30.836753331496514,"lng":150.19939484562425,"count":0,"salCode":"10418","state":"New South Wales"},{"name":"Blueys Beach","lat":-32.35163886582634,"lng":152.5351789534029,"count":0,"salCode":"10419","state":"New South Wales"},{"name":"Boambee","lat":-30.333988303210266,"lng":153.066464408754,"count":0,"salCode":"10420","state":"New South Wales"},{"name":"Boambee East","lat":-30.342139601435587,"lng":153.08183787414902,"count":0,"salCode":"10421","state":"New South Wales"},{"name":"Boambolo","lat":-34.990476260995784,"lng":148.8878796349203,"count":0,"salCode":"10422","state":"New South Wales"},{"name":"Boat Harbour (Lismore - NSW)","lat":-28.776839739351082,"lng":153.35552331995083,"count":0,"salCode":"10423","state":"New South Wales"},{"name":"Boat Harbour (Port Stephens - NSW)","lat":-32.78777763470501,"lng":152.11455974104337,"count":0,"salCode":"10424","state":"New South Wales"},{"name":"Bobadah","lat":-32.32133211501518,"lng":146.6577300963604,"count":0,"salCode":"10425","state":"New South Wales"},{"name":"Bobin","lat":-31.711193512379563,"lng":152.28129576585133,"count":0,"salCode":"10426","state":"New South Wales"},{"name":"Bobs Creek","lat":-31.601784238489447,"lng":152.751215446792,"count":0,"salCode":"10427","state":"New South Wales"},{"name":"Bobs Farm","lat":-32.76274100168125,"lng":152.0041383820139,"count":0,"salCode":"10428","state":"New South Wales"},{"name":"Bobundara","lat":-36.457219782560536,"lng":148.98976176489518,"count":0,"salCode":"10429","state":"New South Wales"},{"name":"Boco","lat":-36.598537542679864,"lng":149.1759415026929,"count":0,"salCode":"10430","state":"New South Wales"},{"name":"Bocoble","lat":-32.79978075243831,"lng":149.74850913584245,"count":0,"salCode":"10431","state":"New South Wales"},{"name":"Bocobra","lat":-33.11617460582436,"lng":148.55236601673818,"count":0,"salCode":"10432","state":"New South Wales"},{"name":"Bodalla","lat":-36.08740977486738,"lng":150.00486482761414,"count":0,"salCode":"10433","state":"New South Wales"},{"name":"Bodangora","lat":-32.43236612088802,"lng":149.059408321541,"count":0,"salCode":"10434","state":"New South Wales"},{"name":"Boeill Creek","lat":-34.1596056041459,"lng":142.10480294377322,"count":0,"salCode":"10435","state":"New South Wales"},{"name":"Bogan","lat":-32.08020233779194,"lng":147.4408847029153,"count":0,"salCode":"10436","state":"New South Wales"},{"name":"Bogan Gate","lat":-33.08563672518319,"lng":147.78210408497395,"count":0,"salCode":"10437","state":"New South Wales"},{"name":"Bogangar","lat":-28.32542581698263,"lng":153.55676300863644,"count":0,"salCode":"10438","state":"New South Wales"},{"name":"Bogee","lat":-33.016476754760376,"lng":150.0744116839897,"count":0,"salCode":"10439","state":"New South Wales"},{"name":"Boggabilla","lat":-28.595120813743446,"lng":150.1602911707147,"count":0,"salCode":"10440","state":"New South Wales"},{"name":"Boggabri","lat":-30.673312147163767,"lng":150.11440015976575,"count":0,"salCode":"10441","state":"New South Wales"},{"name":"Bogong Peaks Wilderness","lat":-35.51095317039621,"lng":148.38291908068965,"count":0,"salCode":"10442","state":"New South Wales"},{"name":"Bohena Creek","lat":-30.419565093826623,"lng":149.65862025310003,"count":0,"salCode":"10443","state":"New South Wales"},{"name":"Bohnock","lat":-31.943605127966983,"lng":152.56242861992317,"count":0,"salCode":"10444","state":"New South Wales"},{"name":"Bolaro","lat":-35.919333000580885,"lng":148.8248888067346,"count":0,"salCode":"10445","state":"New South Wales"},{"name":"Bolivia","lat":-29.274365935951888,"lng":151.8576341721394,"count":0,"salCode":"10446","state":"New South Wales"},{"name":"Bolong","lat":-34.83757561634962,"lng":150.66175644351048,"count":0,"salCode":"10447","state":"New South Wales"},{"name":"Bolton Point","lat":-32.99616407842142,"lng":151.61241828629437,"count":0,"salCode":"10448","state":"New South Wales"},{"name":"Bolwarra (NSW)","lat":-32.710134816158394,"lng":151.5669335076833,"count":0,"salCode":"10449","state":"New South Wales"},{"name":"Bolwarra Heights","lat":-32.691383998908066,"lng":151.58064082853704,"count":0,"salCode":"10450","state":"New South Wales"},{"name":"Bom Bom","lat":-29.75995890699996,"lng":152.96058725361905,"count":0,"salCode":"10451","state":"New South Wales"},{"name":"Bomaderry","lat":-34.85066585279634,"lng":150.6016062033123,"count":0,"salCode":"10452","state":"New South Wales"},{"name":"Bombah Point","lat":-32.51263044064278,"lng":152.28258731499972,"count":0,"salCode":"10453","state":"New South Wales"},{"name":"Bombala","lat":-36.89230163427227,"lng":149.28925243196616,"count":0,"salCode":"10454","state":"New South Wales"},{"name":"Bombay","lat":-35.435736772975766,"lng":149.66171445182184,"count":0,"salCode":"10455","state":"New South Wales"},{"name":"Bombira","lat":-32.581568105554105,"lng":149.60245254470703,"count":0,"salCode":"10456","state":"New South Wales"},{"name":"Bombo","lat":-34.65530752992418,"lng":150.85666855054558,"count":0,"salCode":"10457","state":"New South Wales"},{"name":"Bombowlee","lat":-35.27167935041415,"lng":148.23616886673918,"count":0,"salCode":"10458","state":"New South Wales"},{"name":"Bombowlee Creek","lat":-35.27249818432739,"lng":148.31262355239392,"count":0,"salCode":"10459","state":"New South Wales"},{"name":"Bomen","lat":-35.06050907437163,"lng":147.42422730646902,"count":0,"salCode":"10460","state":"New South Wales"},{"name":"Bonalbo","lat":-28.717396578475128,"lng":152.64169336219047,"count":0,"salCode":"10461","state":"New South Wales"},{"name":"Bondi","lat":-33.894396864982994,"lng":151.2669658577345,"count":0,"salCode":"10462","state":"New South Wales"},{"name":"Bondi Beach","lat":-33.89243979022722,"lng":151.27333897725748,"count":0,"salCode":"10463","state":"New South Wales"},{"name":"Bondi Forest","lat":-37.13516575017293,"lng":149.21874927841074,"count":0,"salCode":"10464","state":"New South Wales"},{"name":"Bondi Junction","lat":-33.89161867555972,"lng":151.2505241779875,"count":0,"salCode":"10465","state":"New South Wales"},{"name":"Bonnells Bay","lat":-33.10554564910155,"lng":151.5221690176702,"count":0,"salCode":"10466","state":"New South Wales"},{"name":"Bonnet Bay","lat":-34.009438303014775,"lng":151.0511604206723,"count":0,"salCode":"10467","state":"New South Wales"},{"name":"Bonny Hills","lat":-31.595997788952353,"lng":152.82354277047253,"count":0,"salCode":"10468","state":"New South Wales"},{"name":"Bonnyrigg","lat":-33.894929524816966,"lng":150.8916734511176,"count":0,"salCode":"10469","state":"New South Wales"},{"name":"Bonnyrigg Heights","lat":-33.88936832787847,"lng":150.87001477080375,"count":0,"salCode":"10470","state":"New South Wales"},{"name":"Bonshaw (NSW)","lat":-29.053137506046667,"lng":151.2660446915391,"count":0,"salCode":"10471","state":"New South Wales"},{"name":"Bonville","lat":-30.38586157581261,"lng":153.01494989687944,"count":0,"salCode":"10472","state":"New South Wales"},{"name":"Booerie Creek","lat":-28.784593803325773,"lng":153.2439383432279,"count":0,"salCode":"10473","state":"New South Wales"},{"name":"Book Book","lat":-35.310322518277474,"lng":147.54720070003444,"count":0,"salCode":"10474","state":"New South Wales"},{"name":"Booker Bay","lat":-33.513816978241344,"lng":151.346609687889,"count":0,"salCode":"10475","state":"New South Wales"},{"name":"Bookham","lat":-34.86554679752703,"lng":148.60646378468013,"count":0,"salCode":"10476","state":"New South Wales"},{"name":"Bookookoorara","lat":-28.786736785951568,"lng":152.04079874532266,"count":0,"salCode":"10477","state":"New South Wales"},{"name":"Bookram","lat":-29.71880558576182,"lng":153.25011618580746,"count":0,"salCode":"10478","state":"New South Wales"},{"name":"Boolambayte","lat":-32.42789217624946,"lng":152.2769828604455,"count":0,"salCode":"10479","state":"New South Wales"},{"name":"Boolaroo","lat":-32.947641147766625,"lng":151.6270060053334,"count":0,"salCode":"10480","state":"New South Wales"},{"name":"Boolcarroll","lat":-30.064114127234326,"lng":149.42677930240626,"count":0,"salCode":"10481","state":"New South Wales"},{"name":"Booligal","lat":-33.70157135193283,"lng":145.0964830249505,"count":0,"salCode":"10482","state":"New South Wales"},{"name":"Boolijah","lat":-35.09695799893648,"lng":150.31753784044454,"count":0,"salCode":"10483","state":"New South Wales"},{"name":"Boomanoomana","lat":-35.96022650753456,"lng":145.86002582472628,"count":0,"salCode":"10484","state":"New South Wales"},{"name":"Boomerang Beach","lat":-32.339787692685135,"lng":152.53764519367598,"count":0,"salCode":"10485","state":"New South Wales"},{"name":"Boomey","lat":-32.96110948291708,"lng":148.95978464647155,"count":0,"salCode":"10486","state":"New South Wales"},{"name":"Boomi","lat":-28.702643946230317,"lng":149.52778947564727,"count":0,"salCode":"10487","state":"New South Wales"},{"name":"Boomi Creek","lat":-28.48671873376482,"lng":152.5727745566659,"count":0,"salCode":"10488","state":"New South Wales"},{"name":"Boona Mount","lat":-32.647916552490145,"lng":147.26357214771576,"count":0,"salCode":"10489","state":"New South Wales"},{"name":"Boonal","lat":-28.755490535730917,"lng":150.60924533837587,"count":0,"salCode":"10490","state":"New South Wales"},{"name":"Boonoo Boonoo","lat":-28.858632127180453,"lng":152.14968492951198,"count":0,"salCode":"10491","state":"New South Wales"},{"name":"Boorabee Park","lat":-28.712659056958344,"lng":153.0745148269723,"count":0,"salCode":"10492","state":"New South Wales"},{"name":"Booragul","lat":-32.975679538542344,"lng":151.6103574043444,"count":0,"salCode":"10493","state":"New South Wales"},{"name":"Booral (NSW)","lat":-32.431675834235456,"lng":152.02866851438282,"count":0,"salCode":"10494","state":"New South Wales"},{"name":"Boorga","lat":-34.02321264355948,"lng":146.00011099282153,"count":0,"salCode":"10495","state":"New South Wales"},{"name":"Boorganna","lat":-31.624649636248478,"lng":152.35927465004454,"count":0,"salCode":"10496","state":"New South Wales"},{"name":"Boorolong","lat":-30.35412781863983,"lng":151.4893719212071,"count":0,"salCode":"10497","state":"New South Wales"},{"name":"Boorook","lat":-28.80549578616189,"lng":152.25278147263683,"count":0,"salCode":"10498","state":"New South Wales"},{"name":"Boorooma","lat":-35.0711295675937,"lng":147.36765710846882,"count":0,"salCode":"10499","state":"New South Wales"},{"name":"Booroorban","lat":-34.870033025570045,"lng":144.77102462970564,"count":0,"salCode":"10500","state":"New South Wales"},{"name":"Boorowa","lat":-34.372040786011866,"lng":148.7891975866004,"count":0,"salCode":"10501","state":"New South Wales"},{"name":"Bootawa","lat":-31.911844036511354,"lng":152.35240788175122,"count":0,"salCode":"10502","state":"New South Wales"},{"name":"Booti Booti","lat":-32.3173807036349,"lng":152.52299314428993,"count":0,"salCode":"10503","state":"New South Wales"},{"name":"Booyong","lat":-28.748397486138657,"lng":153.45050828117476,"count":0,"salCode":"10504","state":"New South Wales"},{"name":"Bora Ridge","lat":-29.076894903817298,"lng":153.21839582030498,"count":0,"salCode":"10505","state":"New South Wales"},{"name":"Borah Creek","lat":-30.602141123732114,"lng":150.48732478660276,"count":0,"salCode":"10506","state":"New South Wales"},{"name":"Borambola","lat":-35.14688384972752,"lng":147.7033790776455,"count":0,"salCode":"10507","state":"New South Wales"},{"name":"Border Ranges","lat":-28.405950142677177,"lng":153.09708310816433,"count":0,"salCode":"10508","state":"New South Wales"},{"name":"Boree","lat":-33.235226793267884,"lng":148.8557921276482,"count":0,"salCode":"10509","state":"New South Wales"},{"name":"Boree Creek","lat":-35.1015597146322,"lng":146.5227617244215,"count":0,"salCode":"10510","state":"New South Wales"},{"name":"Borenore","lat":-33.241507511781215,"lng":148.9451634059932,"count":0,"salCode":"10511","state":"New South Wales"},{"name":"Boro","lat":-35.18314254937182,"lng":149.69506453696357,"count":0,"salCode":"10512","state":"New South Wales"},{"name":"Bossley Park","lat":-33.86878874015782,"lng":150.8807500250427,"count":0,"salCode":"10513","state":"New South Wales"},{"name":"Bostobrick","lat":-30.288764979605798,"lng":152.61998204898995,"count":0,"salCode":"10514","state":"New South Wales"},{"name":"Botany","lat":-33.9490614023621,"lng":151.19951135750816,"count":0,"salCode":"10515","state":"New South Wales"},{"name":"Botobolar","lat":-32.52799607221658,"lng":149.78679890062767,"count":0,"salCode":"10516","state":"New South Wales"},{"name":"Bottle Creek","lat":-28.792567430247587,"lng":152.65531191900965,"count":0,"salCode":"10517","state":"New South Wales"},{"name":"Bouddi","lat":-33.52064432614507,"lng":151.40760492348406,"count":0,"salCode":"10518","state":"New South Wales"},{"name":"Bourbah","lat":-31.24430562740606,"lng":148.1889193213758,"count":0,"salCode":"10519","state":"New South Wales"},{"name":"Bourke","lat":-30.012526779097648,"lng":146.14770700627727,"count":0,"salCode":"10520","state":"New South Wales"},{"name":"Bourkelands","lat":-35.1572325635753,"lng":147.34459244049324,"count":0,"salCode":"10521","state":"New South Wales"},{"name":"Bournda","lat":-36.80755572077724,"lng":149.92652995630607,"count":0,"salCode":"10522","state":"New South Wales"},{"name":"Bournewood","lat":-32.781209401569,"lng":148.7295843592426,"count":0,"salCode":"10523","state":"New South Wales"},{"name":"Bow Bowing","lat":-34.01761323999202,"lng":150.83992663894452,"count":0,"salCode":"10524","state":"New South Wales"},{"name":"Bowan Park","lat":-33.33352340603804,"lng":148.8528570136468,"count":0,"salCode":"10525","state":"New South Wales"},{"name":"Bowen Mountain","lat":-33.580307276631885,"lng":150.6252896139359,"count":0,"salCode":"10526","state":"New South Wales"},{"name":"Bowenfels","lat":-33.488626530296564,"lng":150.08735680964543,"count":0,"salCode":"10527","state":"New South Wales"},{"name":"Bowling Alley Point","lat":-31.361197665732398,"lng":151.12876852542823,"count":0,"salCode":"10528","state":"New South Wales"},{"name":"Bowman","lat":-31.923647975511056,"lng":151.8128492404222,"count":0,"salCode":"10529","state":"New South Wales"},{"name":"Bowman Farm","lat":-31.910143617046117,"lng":151.92277934460614,"count":0,"salCode":"10530","state":"New South Wales"},{"name":"Bowmans Creek","lat":-32.25849267101498,"lng":151.129863306455,"count":0,"salCode":"10531","state":"New South Wales"},{"name":"Bowna","lat":-36.01404621173883,"lng":147.1515491645549,"count":0,"salCode":"10532","state":"New South Wales"},{"name":"Bowning","lat":-34.72406101080671,"lng":148.848089502709,"count":0,"salCode":"10533","state":"New South Wales"},{"name":"Bowral","lat":-34.488204899551064,"lng":150.40661922476863,"count":0,"salCode":"10534","state":"New South Wales"},{"name":"Bowraville","lat":-30.64198824973524,"lng":152.85194771419702,"count":0,"salCode":"10535","state":"New South Wales"},{"name":"Box Head","lat":-33.55692616081157,"lng":151.31786966709626,"count":0,"salCode":"10536","state":"New South Wales"},{"name":"Box Hill (NSW)","lat":-33.65089166665335,"lng":150.89829405278888,"count":0,"salCode":"10537","state":"New South Wales"},{"name":"Boxers Creek","lat":-34.7950979909467,"lng":149.87486406016734,"count":0,"salCode":"10538","state":"New South Wales"},{"name":"Boydtown","lat":-37.10334625705567,"lng":149.88469030828492,"count":0,"salCode":"10539","state":"New South Wales"},{"name":"Bradbury (NSW)","lat":-34.08497940574554,"lng":150.81560688424747,"count":0,"salCode":"10540","state":"New South Wales"},{"name":"Braefield","lat":-31.572378347854524,"lng":150.69955293290909,"count":0,"salCode":"10541","state":"New South Wales"},{"name":"Braemar","lat":-34.43127008502539,"lng":150.48190812146618,"count":0,"salCode":"10542","state":"New South Wales"},{"name":"Braemar Bay","lat":-36.08344408273269,"lng":148.6626763136,"count":0,"salCode":"10543","state":"New South Wales"},{"name":"Braidwood","lat":-35.42314266938274,"lng":149.75626523639238,"count":0,"salCode":"10544","state":"New South Wales"},{"name":"Brandy Hill","lat":-32.694596747790655,"lng":151.69779412956984,"count":0,"salCode":"10545","state":"New South Wales"},{"name":"Branxton","lat":-32.64657982406589,"lng":151.34485481279762,"count":0,"salCode":"10546","state":"New South Wales"},{"name":"Braunstone","lat":-29.81225358768433,"lng":152.9275643112418,"count":0,"salCode":"10547","state":"New South Wales"},{"name":"Brawboy","lat":-31.954640256459953,"lng":150.62213969588672,"count":0,"salCode":"10548","state":"New South Wales"},{"name":"Bray Park (NSW)","lat":-28.341890916697505,"lng":153.37380829466827,"count":0,"salCode":"10549","state":"New South Wales"},{"name":"Brays Creek","lat":-28.401739369911258,"lng":153.1872401714121,"count":0,"salCode":"10550","state":"New South Wales"},{"name":"Brayton","lat":-34.61506113800293,"lng":150.03837327646283,"count":0,"salCode":"10551","state":"New South Wales"},{"name":"Breadalbane (NSW)","lat":-34.80408734614514,"lng":149.42384924708065,"count":0,"salCode":"10552","state":"New South Wales"},{"name":"Breakfast Creek","lat":-32.676942194301766,"lng":149.9555993806575,"count":0,"salCode":"10553","state":"New South Wales"},{"name":"Breakfast Point","lat":-33.84229655993961,"lng":151.11132201048287,"count":0,"salCode":"10554","state":"New South Wales"},{"name":"Bream Beach","lat":-35.108936785300706,"lng":150.66317389829325,"count":0,"salCode":"10555","state":"New South Wales"},{"name":"Bredbo","lat":-35.95677894092539,"lng":149.2005090747321,"count":0,"salCode":"10556","state":"New South Wales"},{"name":"Breelong","lat":-31.756446281039434,"lng":148.82403140858386,"count":0,"salCode":"10557","state":"New South Wales"},{"name":"Breeza","lat":-31.259514022967938,"lng":150.44246566007322,"count":0,"salCode":"10558","state":"New South Wales"},{"name":"Bretti","lat":-31.792245838259824,"lng":151.9253890851834,"count":0,"salCode":"10559","state":"New South Wales"},{"name":"Brewarrina","lat":-30.132433773962735,"lng":147.1334985911864,"count":0,"salCode":"10560","state":"New South Wales"},{"name":"Brewongle","lat":-33.48898847267431,"lng":149.6812422256166,"count":0,"salCode":"10561","state":"New South Wales"},{"name":"Briarbrook","lat":-30.168699603123457,"lng":151.35657680007165,"count":0,"salCode":"10562","state":"New South Wales"},{"name":"Bribbaree","lat":-34.123796433161274,"lng":147.848041515113,"count":0,"salCode":"10563","state":"New South Wales"},{"name":"Bridgman","lat":-32.43967730014859,"lng":151.17460866997604,"count":0,"salCode":"10564","state":"New South Wales"},{"name":"Brierfield","lat":-30.52784257172155,"lng":152.92846075792048,"count":0,"salCode":"10565","state":"New South Wales"},{"name":"Brighton-Le-Sands","lat":-33.957305912915416,"lng":151.15244501376472,"count":0,"salCode":"10566","state":"New South Wales"},{"name":"Brightwaters","lat":-33.11635476188989,"lng":151.54504544716517,"count":0,"salCode":"10567","state":"New South Wales"},{"name":"Bril Bril","lat":-31.292742903237286,"lng":152.56012812059313,"count":0,"salCode":"10568","state":"New South Wales"},{"name":"Brimbin","lat":-31.86553050598878,"lng":152.47345075804307,"count":0,"salCode":"10569","state":"New South Wales"},{"name":"Brindabella","lat":-35.3958096967237,"lng":148.67918049988015,"count":0,"salCode":"10570","state":"New South Wales"},{"name":"Brinerville","lat":-30.475143992430922,"lng":152.52108406928352,"count":0,"salCode":"10571","state":"New South Wales"},{"name":"Bringelly","lat":-33.940963491923796,"lng":150.74429728459145,"count":0,"salCode":"10572","state":"New South Wales"},{"name":"Bringenbrong","lat":-36.14994131083786,"lng":148.02273176877713,"count":0,"salCode":"10573","state":"New South Wales"},{"name":"Brisbane Grove","lat":-34.78744233612145,"lng":149.712198192673,"count":0,"salCode":"10574","state":"New South Wales"},{"name":"Broadmeadow","lat":-32.92487694080306,"lng":151.73157165626637,"count":0,"salCode":"10575","state":"New South Wales"},{"name":"Broadwater (Bega Valley - NSW)","lat":-36.96768357052349,"lng":149.89288012837972,"count":0,"salCode":"10576","state":"New South Wales"},{"name":"Broadwater (Richmond Valley - NSW)","lat":-29.030301748771517,"lng":153.44028648565202,"count":0,"salCode":"10577","state":"New South Wales"},{"name":"Broadway","lat":-34.71519356658501,"lng":149.09203130021743,"count":0,"salCode":"10578","state":"New South Wales"},{"name":"Brobenah","lat":-34.395807090338664,"lng":146.42629940174203,"count":0,"salCode":"10579","state":"New South Wales"},{"name":"Brocklehurst","lat":-32.17793184660766,"lng":148.62451265021272,"count":0,"salCode":"10580","state":"New South Wales"},{"name":"Brocklesby","lat":-35.81202305326695,"lng":146.66615433001576,"count":0,"salCode":"10581","state":"New South Wales"},{"name":"Brockley","lat":-30.297837603690557,"lng":151.8503354776658,"count":0,"salCode":"10582","state":"New South Wales"},{"name":"Brodies Plains","lat":-29.80308962709819,"lng":151.18767746642584,"count":0,"salCode":"10583","state":"New South Wales"},{"name":"Brogans Creek","lat":-33.00308539356803,"lng":150.0108760881154,"count":0,"salCode":"10584","state":"New South Wales"},{"name":"Brogers Creek","lat":-34.70554381617868,"lng":150.68243384937216,"count":0,"salCode":"10585","state":"New South Wales"},{"name":"Brogo","lat":-36.4638584419212,"lng":149.66265654655365,"count":0,"salCode":"10586","state":"New South Wales"},{"name":"Broke (NSW)","lat":-32.78124697462066,"lng":151.09493488706343,"count":0,"salCode":"10587","state":"New South Wales"},{"name":"Broken Head","lat":-28.725124857519795,"lng":153.6115926850898,"count":0,"salCode":"10588","state":"New South Wales"},{"name":"Broken Hill","lat":-32.30925412652467,"lng":141.78883593903754,"count":0,"salCode":"10589","state":"New South Wales"},{"name":"Brombin","lat":-31.458356380458902,"lng":152.63647638489465,"count":0,"salCode":"10590","state":"New South Wales"},{"name":"Bronte","lat":-33.9042686265161,"lng":151.26675114052497,"count":0,"salCode":"10591","state":"New South Wales"},{"name":"Brookdale (NSW)","lat":-35.09231913761411,"lng":146.97858033007464,"count":0,"salCode":"10592","state":"New South Wales"},{"name":"Brookfield (NSW)","lat":-32.5007741269367,"lng":151.7703867887772,"count":0,"salCode":"10593","state":"New South Wales"},{"name":"Brooklana","lat":-30.295695507493868,"lng":152.87497945416143,"count":0,"salCode":"10594","state":"New South Wales"},{"name":"Brooklet","lat":-28.739593422569854,"lng":153.5002780689054,"count":0,"salCode":"10595","state":"New South Wales"},{"name":"Brooklyn (NSW)","lat":-33.574986221043716,"lng":151.2161856006281,"count":0,"salCode":"10596","state":"New South Wales"},{"name":"Brookong","lat":-35.345994187015656,"lng":146.5607261279705,"count":0,"salCode":"10597","state":"New South Wales"},{"name":"Brookvale","lat":-33.76281839265913,"lng":151.26753389811626,"count":0,"salCode":"10598","state":"New South Wales"},{"name":"Brooman","lat":-35.51917585716173,"lng":150.24961622020032,"count":0,"salCode":"10599","state":"New South Wales"},{"name":"Brooms Head","lat":-29.62344355876295,"lng":153.29911641776638,"count":0,"salCode":"10600","state":"New South Wales"},{"name":"Broughams Gate","lat":-30.958278212241716,"lng":141.28238571127477,"count":0,"salCode":"10601","state":"New South Wales"},{"name":"Broughton (NSW)","lat":-34.76170364128927,"lng":150.73686312487783,"count":0,"salCode":"10602","state":"New South Wales"},{"name":"Broughton Vale","lat":-34.74471235171169,"lng":150.71406995582214,"count":0,"salCode":"10603","state":"New South Wales"},{"name":"Broughton Village","lat":-34.7452165890247,"lng":150.74968615038165,"count":0,"salCode":"10604","state":"New South Wales"},{"name":"Broulee","lat":-35.853237749278726,"lng":150.1700922279086,"count":0,"salCode":"10605","state":"New South Wales"},{"name":"Brownlow Hill","lat":-34.04218291843179,"lng":150.65405984519995,"count":0,"salCode":"10606","state":"New South Wales"},{"name":"Browns Creek","lat":-33.55693701541409,"lng":149.15901184483408,"count":0,"salCode":"10607","state":"New South Wales"},{"name":"Browns Mountain","lat":-34.79190319650766,"lng":150.51889519759237,"count":0,"salCode":"10608","state":"New South Wales"},{"name":"Brownsville","lat":-34.480670669772856,"lng":150.813753504032,"count":0,"salCode":"10609","state":"New South Wales"},{"name":"Brucedale","lat":-35.00546629261167,"lng":147.42552808006613,"count":0,"salCode":"10610","state":"New South Wales"},{"name":"Bruie Plains","lat":-32.79248522935114,"lng":147.89396029105356,"count":0,"salCode":"10611","state":"New South Wales"},{"name":"Bruinbun","lat":-33.118836585702994,"lng":149.4709836244917,"count":0,"salCode":"10612","state":"New South Wales"},{"name":"Brumby Plains","lat":-28.42901574685018,"lng":152.65638107270402,"count":0,"salCode":"10613","state":"New South Wales"},{"name":"Brundee","lat":-34.88916867914489,"lng":150.66337996378266,"count":0,"salCode":"10614","state":"New South Wales"},{"name":"Brungle","lat":-35.14939963323526,"lng":148.21316861838545,"count":0,"salCode":"10615","state":"New South Wales"},{"name":"Brungle Creek","lat":-35.14788793391363,"lng":148.28838341602162,"count":0,"salCode":"10616","state":"New South Wales"},{"name":"Brunkerville","lat":-32.956423889127045,"lng":151.50878875829102,"count":0,"salCode":"10617","state":"New South Wales"},{"name":"Brunswick Heads","lat":-28.547508298248285,"lng":153.54180346458176,"count":0,"salCode":"10618","state":"New South Wales"},{"name":"Brushgrove","lat":-29.561627998388854,"lng":153.08384978994448,"count":0,"salCode":"10619","state":"New South Wales"},{"name":"Brushy Creek","lat":-30.17899288937603,"lng":151.50121178964528,"count":0,"salCode":"10620","state":"New South Wales"},{"name":"Buangla","lat":-34.88461732915504,"lng":150.39726375086317,"count":0,"salCode":"10621","state":"New South Wales"},{"name":"Bucca (NSW)","lat":-30.1535969386849,"lng":153.10619776309042,"count":0,"salCode":"10622","state":"New South Wales"},{"name":"Bucca Wauka","lat":-32.10890521576093,"lng":152.15545458337982,"count":0,"salCode":"10623","state":"New South Wales"},{"name":"Buccarumbi","lat":-29.849832906239982,"lng":152.59747356005673,"count":0,"salCode":"10624","state":"New South Wales"},{"name":"Buchanan (NSW)","lat":-32.822212136058035,"lng":151.53251383548394,"count":0,"salCode":"10625","state":"New South Wales"},{"name":"Buckajo","lat":-36.69857900935556,"lng":149.77298954298087,"count":0,"salCode":"10626","state":"New South Wales"},{"name":"Buckaroo","lat":-32.560560797503555,"lng":149.65225522611274,"count":0,"salCode":"10627","state":"New South Wales"},{"name":"Buckenbowra","lat":-35.68698365105162,"lng":149.97410705109138,"count":0,"salCode":"10628","state":"New South Wales"},{"name":"Buckenderra","lat":-36.15507861548982,"lng":148.75035849021532,"count":0,"salCode":"10629","state":"New South Wales"},{"name":"Buckendoon","lat":-29.034287623154874,"lng":153.34572208012682,"count":0,"salCode":"10630","state":"New South Wales"},{"name":"Bucketty","lat":-33.117892565315046,"lng":151.1554804092725,"count":0,"salCode":"10631","state":"New South Wales"},{"name":"Buckra Bendinni","lat":-30.638736352325047,"lng":152.76482408153703,"count":0,"salCode":"10632","state":"New South Wales"},{"name":"Budawang","lat":-35.409542840634806,"lng":150.06580639775223,"count":0,"salCode":"10633","state":"New South Wales"},{"name":"Buddabadah","lat":-32.02433706986835,"lng":147.19747269376978,"count":0,"salCode":"10634","state":"New South Wales"},{"name":"Budden","lat":-32.496174756676105,"lng":150.02705189007668,"count":0,"salCode":"10635","state":"New South Wales"},{"name":"Budderoo","lat":-34.67271543066286,"lng":150.6676420899394,"count":0,"salCode":"10636","state":"New South Wales"},{"name":"Buddong","lat":-35.680357948507286,"lng":148.24662584636127,"count":0,"salCode":"10637","state":"New South Wales"},{"name":"Budgee Budgee (NSW)","lat":-32.53760297255767,"lng":149.67164801999806,"count":0,"salCode":"10638","state":"New South Wales"},{"name":"Budgewoi","lat":-33.23294007792573,"lng":151.55591933485948,"count":0,"salCode":"10639","state":"New South Wales"},{"name":"Budgewoi Peninsula","lat":-33.21928910753243,"lng":151.58061558837022,"count":0,"salCode":"10640","state":"New South Wales"},{"name":"Budgong","lat":-34.8120729238224,"lng":150.4610621022638,"count":0,"salCode":"10641","state":"New South Wales"},{"name":"Buff Point","lat":-33.230338008584916,"lng":151.5351158703005,"count":0,"salCode":"10642","state":"New South Wales"},{"name":"Bugaldie","lat":-31.19209106979884,"lng":149.1230767333233,"count":0,"salCode":"10643","state":"New South Wales"},{"name":"Bukalong","lat":-36.8065473371804,"lng":149.22499703015802,"count":0,"salCode":"10644","state":"New South Wales"},{"name":"Bukkulla","lat":-29.542211895247014,"lng":151.12093709853585,"count":0,"salCode":"10645","state":"New South Wales"},{"name":"Bulahdelah","lat":-32.38981817906823,"lng":152.18811992861416,"count":0,"salCode":"10646","state":"New South Wales"},{"name":"Bulee","lat":-35.00894415142808,"lng":150.12263166555076,"count":0,"salCode":"10647","state":"New South Wales"},{"name":"Bulga (NSW)","lat":-32.63275043858351,"lng":150.95814601513263,"count":0,"salCode":"10648","state":"New South Wales"},{"name":"Bulga Forest","lat":-31.52816535961432,"lng":152.20089587919745,"count":0,"salCode":"10649","state":"New South Wales"},{"name":"Bulgary","lat":-34.98663900965436,"lng":146.95803566923647,"count":0,"salCode":"10650","state":"New South Wales"},{"name":"Bulla (NSW)","lat":-31.98639781864441,"lng":144.4550727112445,"count":0,"salCode":"10651","state":"New South Wales"},{"name":"Bulla Creek","lat":-34.141333210361736,"lng":148.26326354905646,"count":0,"salCode":"10652","state":"New South Wales"},{"name":"Bullaburra","lat":-33.73362548778568,"lng":150.42292427641672,"count":0,"salCode":"10653","state":"New South Wales"},{"name":"Bullagreen","lat":-31.333426653059785,"lng":148.03109181466664,"count":0,"salCode":"10654","state":"New South Wales"},{"name":"Bullarah","lat":-29.51649813478318,"lng":149.13709663634157,"count":0,"salCode":"10655","state":"New South Wales"},{"name":"Bullatale","lat":-35.76875280036142,"lng":145.10097117169056,"count":0,"salCode":"10656","state":"New South Wales"},{"name":"Bullawa Creek","lat":-30.252041182743188,"lng":150.04724423948653,"count":0,"salCode":"10657","state":"New South Wales"},{"name":"Bulldog","lat":-29.04751654973518,"lng":152.52547137814915,"count":0,"salCode":"10658","state":"New South Wales"},{"name":"Bulli","lat":-34.332417777306176,"lng":150.91710805259748,"count":0,"salCode":"10659","state":"New South Wales"},{"name":"Bulliac","lat":-31.916432853065402,"lng":152.04262234428708,"count":0,"salCode":"10660","state":"New South Wales"},{"name":"Bullio","lat":-34.33961481797101,"lng":150.13197740247938,"count":0,"salCode":"10661","state":"New South Wales"},{"name":"Bulyeroi","lat":-29.80459092535147,"lng":149.26622862962435,"count":0,"salCode":"10662","state":"New South Wales"},{"name":"Bumbaldry","lat":-33.85140901658211,"lng":148.41252507096382,"count":0,"salCode":"10663","state":"New South Wales"},{"name":"Bumbalong","lat":-35.847179050672594,"lng":149.1050354684516,"count":0,"salCode":"10664","state":"New South Wales"},{"name":"Bundabah","lat":-32.673286957091484,"lng":152.0596325177391,"count":0,"salCode":"10665","state":"New South Wales"},{"name":"Bundagen","lat":-30.396029893973413,"lng":153.0687606576805,"count":0,"salCode":"10666","state":"New South Wales"},{"name":"Bundanoon (NSW)","lat":-34.67420313007153,"lng":150.29309943411215,"count":0,"salCode":"10667","state":"New South Wales"},{"name":"Bundarra","lat":-30.16449200985802,"lng":151.00598931167883,"count":0,"salCode":"10668","state":"New South Wales"},{"name":"Bundeena","lat":-34.08229662393553,"lng":151.15077477448878,"count":0,"salCode":"10669","state":"New South Wales"},{"name":"Bundella","lat":-31.60467390826261,"lng":149.9441008076662,"count":0,"salCode":"10670","state":"New South Wales"},{"name":"Bundemar","lat":-31.834916256525094,"lng":148.18116293904947,"count":0,"salCode":"10671","state":"New South Wales"},{"name":"Bundewallah","lat":-34.7608655024529,"lng":150.67664276591182,"count":0,"salCode":"10672","state":"New South Wales"},{"name":"Bundook","lat":-31.893664918112695,"lng":152.08192355375826,"count":0,"salCode":"10673","state":"New South Wales"},{"name":"Bundure","lat":-35.18374734154495,"lng":145.96437781444519,"count":0,"salCode":"10674","state":"New South Wales"},{"name":"Bungaba","lat":-32.14889158207058,"lng":149.64948863884837,"count":0,"salCode":"10675","state":"New South Wales"},{"name":"Bungabbee","lat":-28.775177536582866,"lng":153.13541770840718,"count":0,"salCode":"10676","state":"New South Wales"},{"name":"Bungalora","lat":-28.241507349920283,"lng":153.47609887288468,"count":0,"salCode":"10677","state":"New South Wales"},{"name":"Bungarby","lat":-36.70145067489756,"lng":149.00049799479092,"count":0,"salCode":"10678","state":"New South Wales"},{"name":"Bungarribee","lat":-33.77746943559499,"lng":150.8647783213182,"count":0,"salCode":"10679","state":"New South Wales"},{"name":"Bungawalbin","lat":-29.08991278091837,"lng":153.2113742286648,"count":0,"salCode":"10680","state":"New South Wales"},{"name":"Bungendore","lat":-35.30762414614456,"lng":149.49965710544535,"count":0,"salCode":"10681","state":"New South Wales"},{"name":"Bungonia","lat":-34.84291672918757,"lng":149.97667814736388,"count":0,"salCode":"10682","state":"New South Wales"},{"name":"Bungowannah","lat":-36.035386368559976,"lng":146.76200352277135,"count":0,"salCode":"10683","state":"New South Wales"},{"name":"Bungwahl","lat":-32.384836466137,"lng":152.42647815771772,"count":0,"salCode":"10684","state":"New South Wales"},{"name":"Bunnaloo","lat":-35.84089206121409,"lng":144.4192845901021,"count":0,"salCode":"10685","state":"New South Wales"},{"name":"Bunnan","lat":-32.045303211963,"lng":150.5814293525761,"count":0,"salCode":"10686","state":"New South Wales"},{"name":"Bunyah","lat":-32.17339274950213,"lng":152.1962741188926,"count":0,"salCode":"10687","state":"New South Wales"},{"name":"Bunyan","lat":-36.135662126801144,"lng":149.16688231518148,"count":0,"salCode":"10688","state":"New South Wales"},{"name":"Burcher","lat":-33.51659031016473,"lng":147.22182184380904,"count":0,"salCode":"10689","state":"New South Wales"},{"name":"Bureen","lat":-32.458781862559015,"lng":150.7535122470866,"count":0,"salCode":"10690","state":"New South Wales"},{"name":"Burnt Bridge","lat":-31.103156482992713,"lng":152.80185579626814,"count":0,"salCode":"10691","state":"New South Wales"},{"name":"Burnt Yards","lat":-33.59801201958749,"lng":149.01462982883942,"count":0,"salCode":"10692","state":"New South Wales"},{"name":"Buronga","lat":-34.17144982269372,"lng":142.17968650574255,"count":0,"salCode":"10693","state":"New South Wales"},{"name":"Burra (Queanbeyan-Palerang Regional - NSW)","lat":-35.59013923659138,"lng":149.2363028463077,"count":0,"salCode":"10694","state":"New South Wales"},{"name":"Burra (Snowy Valleys - NSW)","lat":-35.83506208146473,"lng":148.08817123852467,"count":0,"salCode":"10695","state":"New South Wales"},{"name":"Burra Creek","lat":-34.8896870372731,"lng":148.01376469080137,"count":0,"salCode":"10696","state":"New South Wales"},{"name":"Burraboi","lat":-35.30813772503086,"lng":144.31615928578967,"count":0,"salCode":"10697","state":"New South Wales"},{"name":"Burradoo","lat":-34.50808926900984,"lng":150.40029047302642,"count":0,"salCode":"10698","state":"New South Wales"},{"name":"Burraga","lat":-33.90668530942198,"lng":149.53279590440826,"count":0,"salCode":"10699","state":"New South Wales"},{"name":"Burragate","lat":-37.00197039401746,"lng":149.68194897621305,"count":0,"salCode":"10700","state":"New South Wales"},{"name":"Burrandana","lat":-35.41683618110934,"lng":147.34992864895833,"count":0,"salCode":"10701","state":"New South Wales"},{"name":"Burraneer","lat":-34.06346715341781,"lng":151.13852077626112,"count":0,"salCode":"10702","state":"New South Wales"},{"name":"Burrangong","lat":-34.28260487594049,"lng":148.24932285367657,"count":0,"salCode":"10703","state":"New South Wales"},{"name":"Burrapine","lat":-30.740414449348556,"lng":152.62868936490372,"count":0,"salCode":"10704","state":"New South Wales"},{"name":"Burrawang","lat":-34.57091604111406,"lng":150.5171609878183,"count":0,"salCode":"10705","state":"New South Wales"},{"name":"Burrell Creek","lat":-31.944347549183085,"lng":152.30724793175452,"count":0,"salCode":"10706","state":"New South Wales"},{"name":"Burren Junction","lat":-29.959628208778533,"lng":148.83488974492585,"count":0,"salCode":"10707","state":"New South Wales"},{"name":"Burrier","lat":-34.87351842077596,"lng":150.44021206183206,"count":0,"salCode":"10708","state":"New South Wales"},{"name":"Burrill Lake","lat":-35.386438798182105,"lng":150.44256186902757,"count":0,"salCode":"10709","state":"New South Wales"},{"name":"Burringbar","lat":-28.429797893077513,"lng":153.4658644352898,"count":0,"salCode":"10710","state":"New South Wales"},{"name":"Burrinjuck","lat":-34.96915488007756,"lng":148.6179684318075,"count":0,"salCode":"10711","state":"New South Wales"},{"name":"Burroway","lat":-32.02146043945924,"lng":148.3054706626055,"count":0,"salCode":"10712","state":"New South Wales"},{"name":"Burrumbuttock","lat":-35.83659298902182,"lng":146.79375926719675,"count":0,"salCode":"10713","state":"New South Wales"},{"name":"Burrundulla","lat":-32.62090119046024,"lng":149.63823760064008,"count":0,"salCode":"10714","state":"New South Wales"},{"name":"Burrungubugge","lat":-36.32870624784271,"lng":148.47172058700994,"count":0,"salCode":"10715","state":"New South Wales"},{"name":"Burwood (NSW)","lat":-33.878239134152444,"lng":151.1054903621171,"count":0,"salCode":"10716","state":"New South Wales"},{"name":"Burwood Heights","lat":-33.88889097128568,"lng":151.10485382053247,"count":0,"salCode":"10717","state":"New South Wales"},{"name":"Busby","lat":-33.9131091101071,"lng":150.88217470135004,"count":0,"salCode":"10718","state":"New South Wales"},{"name":"Busbys Flat","lat":-29.056442180791695,"lng":152.7937249716819,"count":0,"salCode":"10719","state":"New South Wales"},{"name":"Bushells Ridge","lat":-33.19658205830299,"lng":151.48034548576524,"count":0,"salCode":"10720","state":"New South Wales"},{"name":"Buttaba","lat":-33.05157217606761,"lng":151.5791523258454,"count":0,"salCode":"10721","state":"New South Wales"},{"name":"Buttai","lat":-32.83696767448252,"lng":151.5689310820757,"count":0,"salCode":"10722","state":"New South Wales"},{"name":"Butterwick","lat":-32.64687442062815,"lng":151.646457335936,"count":0,"salCode":"10723","state":"New South Wales"},{"name":"Buxton (NSW)","lat":-34.259837783327136,"lng":150.53978630808768,"count":0,"salCode":"10724","state":"New South Wales"},{"name":"Byabarra","lat":-31.534484032946867,"lng":152.53313330949553,"count":0,"salCode":"10725","state":"New South Wales"},{"name":"Byadbo Wilderness","lat":-36.79718675674608,"lng":148.66847557358565,"count":0,"salCode":"10726","state":"New South Wales"},{"name":"Byangum","lat":-28.349642228062475,"lng":153.35952962941676,"count":0,"salCode":"10727","state":"New South Wales"},{"name":"Bylong","lat":-32.38291320865688,"lng":150.13934834637536,"count":0,"salCode":"10728","state":"New South Wales"},{"name":"Byng","lat":-33.32833987316598,"lng":149.2613260856835,"count":0,"salCode":"10729","state":"New South Wales"},{"name":"Byrock","lat":-30.215510233749946,"lng":146.52658515638433,"count":0,"salCode":"10730","state":"New South Wales"},{"name":"Byron Bay","lat":-28.64853212456775,"lng":153.61662179271784,"count":0,"salCode":"10731","state":"New South Wales"},{"name":"Byrrill Creek","lat":-28.444070049962125,"lng":153.23974685031732,"count":0,"salCode":"10732","state":"New South Wales"},{"name":"Bywong","lat":-35.16810296307043,"lng":149.28921342785276,"count":0,"salCode":"10733","state":"New South Wales"},{"name":"Cabarita (NSW)","lat":-33.84695580954223,"lng":151.1177570803458,"count":0,"salCode":"10734","state":"New South Wales"},{"name":"Cabarita Beach","lat":-28.335858882545413,"lng":153.57398180009594,"count":0,"salCode":"10735","state":"New South Wales"},{"name":"Cabbage Tree Island (Ballina - NSW)","lat":-28.983080806066624,"lng":153.45561406248893,"count":0,"salCode":"10736","state":"New South Wales"},{"name":"Cabbage Tree Island (Mid-Coast - NSW)","lat":-31.94631703220333,"lng":152.58792319250858,"count":0,"salCode":"10737","state":"New South Wales"},{"name":"Cabramatta","lat":-33.90066227581159,"lng":150.93263773792793,"count":0,"salCode":"10738","state":"New South Wales"},{"name":"Cabramatta West","lat":-33.8926809317839,"lng":150.91236963270993,"count":0,"salCode":"10739","state":"New South Wales"},{"name":"Cabramurra","lat":-35.945922733766686,"lng":148.4215729884245,"count":0,"salCode":"10740","state":"New South Wales"},{"name":"Caddens","lat":-33.772454644280664,"lng":150.72975605758776,"count":0,"salCode":"10741","state":"New South Wales"},{"name":"Cadgee (NSW)","lat":-36.15548795118621,"lng":149.9044694992292,"count":0,"salCode":"10742","state":"New South Wales"},{"name":"Cadia","lat":-33.441394949095596,"lng":149.00107377096523,"count":0,"salCode":"10743","state":"New South Wales"},{"name":"Caerleon","lat":-32.58143880608423,"lng":149.56493073401126,"count":0,"salCode":"10744","state":"New South Wales"},{"name":"Caffreys Flat","lat":-31.79127387046631,"lng":152.0593182758395,"count":0,"salCode":"10745","state":"New South Wales"},{"name":"Cairncross","lat":-31.350773263566282,"lng":152.70674682993382,"count":0,"salCode":"10746","state":"New South Wales"},{"name":"Calala","lat":-31.136416381523183,"lng":150.95483887811213,"count":0,"salCode":"10747","state":"New South Wales"},{"name":"Calamia","lat":-29.8539499870438,"lng":153.13107300355583,"count":0,"salCode":"10748","state":"New South Wales"},{"name":"Calderwood","lat":-34.55239221705404,"lng":150.74243982797356,"count":0,"salCode":"10749","state":"New South Wales"},{"name":"Caldwell","lat":-35.5298255036523,"lng":144.50290165458898,"count":0,"salCode":"10750","state":"New South Wales"},{"name":"Calga","lat":-33.40170972216088,"lng":151.22705877114026,"count":0,"salCode":"10751","state":"New South Wales"},{"name":"Califat","lat":-35.25159855904626,"lng":148.1090633039167,"count":0,"salCode":"10752","state":"New South Wales"},{"name":"Calimo","lat":-35.45004975136908,"lng":144.59878164563042,"count":0,"salCode":"10753","state":"New South Wales"},{"name":"Callaghan","lat":-32.89387732155628,"lng":151.7054562306409,"count":0,"salCode":"10754","state":"New South Wales"},{"name":"Callaghans Creek","lat":-31.839939164191822,"lng":152.01082051966966,"count":0,"salCode":"10755","state":"New South Wales"},{"name":"Callala Bay","lat":-35.002635372097004,"lng":150.72050177925118,"count":0,"salCode":"10756","state":"New South Wales"},{"name":"Callala Beach","lat":-35.00636298167455,"lng":150.70622868802388,"count":0,"salCode":"10757","state":"New South Wales"},{"name":"Calliope (NSW)","lat":-29.614922618525263,"lng":153.07033822655066,"count":0,"salCode":"10758","state":"New South Wales"},{"name":"Caloola","lat":-33.635956783015146,"lng":149.45327351238274,"count":0,"salCode":"10759","state":"New South Wales"},{"name":"Cambalong","lat":-36.893083235947444,"lng":149.11834643632307,"count":0,"salCode":"10760","state":"New South Wales"},{"name":"Camberwell (NSW)","lat":-32.48205674432805,"lng":151.07270091790895,"count":0,"salCode":"10761","state":"New South Wales"},{"name":"Cambewarra","lat":-34.814477457328564,"lng":150.55602549724648,"count":0,"salCode":"10762","state":"New South Wales"},{"name":"Cambewarra Village","lat":-34.82338036361012,"lng":150.56149516748587,"count":0,"salCode":"10763","state":"New South Wales"},{"name":"Camboon (NSW)","lat":-32.67859496620967,"lng":149.9488905045114,"count":0,"salCode":"10764","state":"New South Wales"},{"name":"Cambra","lat":-32.42390053262009,"lng":151.87512822741417,"count":0,"salCode":"10765","state":"New South Wales"},{"name":"Cambridge Gardens","lat":-33.73842968701814,"lng":150.720790350891,"count":0,"salCode":"10766","state":"New South Wales"},{"name":"Cambridge Park","lat":-33.75269799351705,"lng":150.73075028273286,"count":0,"salCode":"10767","state":"New South Wales"},{"name":"Cambridge Plateau","lat":-28.80280801857431,"lng":152.73379394126417,"count":0,"salCode":"10768","state":"New South Wales"},{"name":"Camden","lat":-34.05825964391599,"lng":150.6961473639088,"count":0,"salCode":"10769","state":"New South Wales"},{"name":"Camden Head","lat":-31.644745420772306,"lng":152.83828537657763,"count":0,"salCode":"10770","state":"New South Wales"},{"name":"Camden Park (NSW)","lat":-34.08054237682934,"lng":150.72375945854282,"count":0,"salCode":"10771","state":"New South Wales"},{"name":"Camden South","lat":-34.08091155547268,"lng":150.7037203922061,"count":0,"salCode":"10772","state":"New South Wales"},{"name":"Camellia","lat":-33.8178381145833,"lng":151.02916380412046,"count":0,"salCode":"10773","state":"New South Wales"},{"name":"Cameron Park","lat":-32.910136058628645,"lng":151.60701840800004,"count":0,"salCode":"10774","state":"New South Wales"},{"name":"Camerons Creek","lat":-30.338123502893932,"lng":151.1396856660441,"count":0,"salCode":"10775","state":"New South Wales"},{"name":"Camira (NSW)","lat":-29.23239818293801,"lng":152.96020026676993,"count":0,"salCode":"10776","state":"New South Wales"},{"name":"Cammeray","lat":-33.81963241326072,"lng":151.21799674784725,"count":0,"salCode":"10777","state":"New South Wales"},{"name":"Camp Creek (NSW)","lat":-28.831555955013403,"lng":150.9812112127165,"count":0,"salCode":"10778","state":"New South Wales"},{"name":"Campbelltown (NSW)","lat":-34.06765511626745,"lng":150.81199868568646,"count":0,"salCode":"10779","state":"New South Wales"},{"name":"Camperdown (NSW)","lat":-33.88690967955218,"lng":151.1824046935448,"count":0,"salCode":"10780","state":"New South Wales"},{"name":"Campsie","lat":-33.91197798207098,"lng":151.1046757702543,"count":0,"salCode":"10781","state":"New South Wales"},{"name":"Campvale","lat":-32.77181485387666,"lng":151.8392036080822,"count":0,"salCode":"10782","state":"New South Wales"},{"name":"Cams Wharf","lat":-33.12435953834732,"lng":151.61478477844219,"count":0,"salCode":"10783","state":"New South Wales"},{"name":"Canada Bay","lat":-33.86424158679696,"lng":151.11597924992495,"count":0,"salCode":"10784","state":"New South Wales"},{"name":"Canadian Lead","lat":-32.395786866972394,"lng":149.6037131831982,"count":0,"salCode":"10785","state":"New South Wales"},{"name":"Canbelego","lat":-31.472410269355095,"lng":146.28979145521507,"count":0,"salCode":"10786","state":"New South Wales"},{"name":"Candelo","lat":-36.770319427830074,"lng":149.6557795901363,"count":0,"salCode":"10787","state":"New South Wales"},{"name":"Cangai","lat":-29.470487556382043,"lng":152.42156254866885,"count":0,"salCode":"10788","state":"New South Wales"},{"name":"Caniaba","lat":-28.839629376671304,"lng":153.20935105887423,"count":0,"salCode":"10789","state":"New South Wales"},